SN,Source,Region,Country,Country_ID,ISO2,ISO3,ADMIN1_NAME,ADMIN1_CODE,ADMIN2_NAME,ADMIN2_CODE,IU_NAME,IU_ID,LocationName,Longitude,Latitude,LocationType,Georeliability,Year_MDA1,N_MDA,Baseline_Prev,SurveyYear,Period,SurveyMonth,Passage,Method_0,Method_1,Method_2,Age_start,Age_end,Examined,Positive,Prevalence,CMFL,Vector_spp,Perc_PoolPositive,SourceOrigen,Funding,Composite_IU_ID
9608,AFRO,Eastern Africa,Ethiopia,17,ET,ETH,Oromiya,1948,Horo Guduru,16644,Hababo Guduru,18894,7th Camp (Bondi village A),37.43231,9.69382,Village,1,null,null,null,2012,2011 - 2016,,null,Mapping,Clinical,Nodule palpation,null,null,30,1,0.033,null,,null,,APOC Trust Fund,AETH0194818894
9609,AFRO,Eastern Africa,Ethiopia,17,ET,ETH,SNNP,1950,Dawro,3138,Tocha,19260,ABA,36.977208,7.208728,Village,1,null,null,null,null,Before 2001,,null,Mapping,Clinical,Nodule palpation,null,null,16,1,0.063,null,,null,,APOC Trust Fund,AETH0195019260
9610,AFRO,Eastern Africa,Ethiopia,17,ET,ETH,Oromiya,1948,West Wellega,3194,M/SIBU,18949,Aba Aga,35.13843,9.86815,Village,1,null,null,null,2011,2011 - 2016,,null,Mapping,Clinical,Nodule palpation,null,null,35,0,0,null,,null,,APOC Trust Fund,AETH0194818949
9611,AFRO,Eastern Africa,Ethiopia,17,ET,ETH,Oromiya,1948,West Wellega,3194,M/SIBU,18949,Aba Bore,35.14993,9.8709,Village,1,null,null,null,2011,2011 - 2016,,null,Mapping,Clinical,Nodule palpation,null,null,35,0,0,null,,null,,APOC Trust Fund,AETH0194818949
9612,AFRO,Eastern Africa,Ethiopia,17,ET,ETH,Oromiya,1948,West Wellega,3194,M/SIBU,18949,Aba Bore-2,35.15617,9.87153,Village,1,null,null,null,2011,2011 - 2016,,null,Mapping,Clinical,Nodule palpation,null,null,35,1,0.029,null,,null,,APOC Trust Fund,AETH0194818949
9613,AFRO,Eastern Africa,Ethiopia,17,ET,ETH,Oromiya,1948,West Wellega,3194,M/SIBU,18949,Aba Dinsa,35.12633,9.85615,Village,1,null,null,null,2011,2011 - 2016,,null,Mapping,Clinical,Nodule palpation,null,null,35,0,0,null,,null,,APOC Trust Fund,AETH0194818949
9614,AFRO,Eastern Africa,Ethiopia,17,ET,ETH,Oromiya,1948,E. Wellega,3146,Limu,18948,Aba Gusu,36.42,9.56328,Village,1,null,null,null,2012,2011 - 2016,,null,Mapping,Clinical,Nodule palpation,null,null,30,10,0.333,null,,null,,APOC Trust Fund,AETH0194818948
9615,AFRO,Eastern Africa,Ethiopia,17,ET,ETH,Oromiya,1948,W. Shewa,3190,Bako Tibe,18777,Abakora 01,37.04805,9.11465,Village,1,null,null,null,2011,2011 - 2016,,null,Mapping,Clinical,Nodule palpation,null,null,31,12,0.387,null,,null,,APOC Trust Fund,AETH0194818777
9616,AFRO,Eastern Africa,Ethiopia,17,ET,ETH,Oromiya,1948,W. Shewa,3190,Bako Tibe,18777,Abakora 2,37.04564,9.11623,Village,1,null,null,null,2011,2011 - 2016,,null,Mapping,Clinical,Nodule palpation,null,null,26,7,0.269,null,,null,,APOC Trust Fund,AETH0194818777
9617,AFRO,Eastern Africa,Ethiopia,17,ET,ETH,Oromiya,1948,W. Shewa,3190,Bako Tibe,18777,Abakora 3,37.04245,9.11745,Village,1,null,null,null,2011,2011 - 2016,,null,Mapping,Clinical,Nodule palpation,null,null,32,14,0.438,null,,null,,APOC Trust Fund,AETH0194818777
9618,AFRO,Eastern Africa,Ethiopia,17,ET,ETH,Oromiya,1948,W. Shewa,3190,Bako Tibe,18777,Abakora 5,37.04192,9.11772,Village,1,null,null,null,2011,2011 - 2016,,null,Mapping,Clinical,Nodule palpation,null,null,30,12,0.4,null,,null,,APOC Trust Fund,AETH0194818777
9619,AFRO,Eastern Africa,Ethiopia,17,ET,ETH,Oromiya,1948,W. Shewa,3190,Bako Tibe,18777,Abakora 7,37.03839,9.11649,Village,1,null,null,null,2011,2011 - 2016,,null,Mapping,Clinical,Nodule palpation,null,null,30,12,0.4,null,,null,,APOC Trust Fund,AETH0194818777
9620,AFRO,Eastern Africa,Ethiopia,17,ET,ETH,Benshangul-Gumuz,1944,Asosa,3131,Sherkole,18702,Abale,34.80434,10.67675,Village,1,null,null,null,2012,2011 - 2016,,null,Mapping,Clinical,Nodule palpation,null,null,30,3,0.1,null,,null,,APOC Trust Fund,AETH0194418702
9621,AFRO,Eastern Africa,Ethiopia,17,ET,ETH,Amhara,1943,West Gojam,3193,Bahir dar Z,18547,ABAY MEND,37.5833,11.4833,Village,1,null,null,null,null,Before 2001,,null,Mapping,Clinical,Nodule palpation,null,null,50,0,0,null,,null,,APOC Trust Fund,AETH0194318547
9622,AFRO,Eastern Africa,Ethiopia,17,ET,ETH,Oromiya,1948,West Wellega,3194,M/SIBU,18949,Abba Giorgis,35.14023,9.91907,Village,1,null,null,null,2011,2011 - 2016,,null,Mapping,Clinical,Nodule palpation,null,null,35,8,0.229,null,,null,,APOC Trust Fund,AETH0194818949
9623,AFRO,Eastern Africa,Ethiopia,17,ET,ETH,Oromiya,1948,West Wellega,3194,BEGHI,18774,Abdi 2,34.50536,9.17866,Village,1,null,null,null,2011,2011 - 2016,,null,Mapping,Clinical,Nodule palpation,null,null,35,14,0.4,null,,null,,APOC Trust Fund,AETH0194818774
9624,AFRO,Eastern Africa,Ethiopia,17,ET,ETH,Oromiya,1948,West Wellega,3194,BEGHI,18774,Abdi 3,34.50422,9.17728,Village,1,null,null,null,2011,2011 - 2016,,null,Mapping,Clinical,Nodule palpation,null,null,35,6,0.171,null,,null,,APOC Trust Fund,AETH0194818774
9625,AFRO,Eastern Africa,Ethiopia,17,ET,ETH,Oromiya,1948,Illu Aba bora,3155,Chora,18807,Abdi Bori,36.0464,8.39218,Village,1,null,null,null,2011,2011 - 2016,,null,Mapping,Clinical,Nodule palpation,null,null,35,7,0.2,null,,null,,APOC Trust Fund,AETH0194818807
9626,AFRO,Eastern Africa,Ethiopia,17,ET,ETH,Oromiya,1948,Illu Aba bora,3155,Dega,18821,Abdi Gudina,36.17921,8.61178,Village,1,null,null,null,2011,2011 - 2016,,null,Mapping,Clinical,Nodule palpation,null,null,30,8,0.267,null,,null,,APOC Trust Fund,AETH0194818821
9627,AFRO,Eastern Africa,Ethiopia,17,ET,ETH,Oromiya,1948,Illu Aba bora,3155,Mako,18952,Abdi Misoma,35.9921,8.66629,Village,1,null,null,null,2011,2011 - 2016,,null,Mapping,Clinical,Nodule palpation,null,null,32,10,0.313,null,,null,,APOC Trust Fund,AETH0194818952
9628,AFRO,Eastern Africa,Ethiopia,17,ET,ETH,Oromiya,1948,West Wellega,3194,YUBDO,19034,Abdisa,35.49833,8.94431,Village,1,null,null,null,2011,2011 - 2016,,null,Mapping,Clinical,Nodule palpation,null,null,35,3,0.086,null,,null,,APOC Trust Fund,AETH0194819034
9629,AFRO,Eastern Africa,Ethiopia,17,ET,ETH,Benshangul-Gumuz,1944,Asosa,3131,Sherkole,18702,Abijendo,34.94536,10.7761,Village,1,null,null,null,2012,2011 - 2016,,null,Mapping,Clinical,Nodule palpation,null,null,30,7,0.233,null,,null,,APOC Trust Fund,AETH0194418702
9630,AFRO,Eastern Africa,Ethiopia,17,ET,ETH,Oromiya,1948,Illu Aba bora,3155,Borecha,18794,Abobo,36.64555,8.39801,Village,1,null,null,null,2011,2011 - 2016,,null,Mapping,Clinical,Nodule palpation,null,null,35,13,0.371,null,,null,,APOC Trust Fund,AETH0194818794
9631,AFRO,Eastern Africa,Ethiopia,17,ET,ETH,Oromiya,1948,Illu Aba bora,3155,Chora,18807,Aboro,36.05412,8.36761,Village,1,null,null,null,2011,2011 - 2016,,null,Mapping,Clinical,Nodule palpation,null,null,35,8,0.229,null,,null,,APOC Trust Fund,AETH0194818807
9632,AFRO,Eastern Africa,Ethiopia,17,ET,ETH,Benshangul-Gumuz,1944,Asosa,3131,Asossa,18686,Abramo,34.51067,9.98994,Village,1,null,null,null,2012,2011 - 2016,,null,Mapping,Clinical,Nodule palpation,null,null,50,3,0.06,null,,null,,APOC Trust Fund,AETH0194418686
9633,AFRO,Eastern Africa,Ethiopia,17,ET,ETH,Oromiya,1948,West Wellega,3194,B/DIRMEJI,18771,Abshala 1ffaa,35.74819,9.45202,Village,1,null,null,null,2011,2011 - 2016,,null,Mapping,Clinical,Nodule palpation,null,null,35,14,0.4,null,,null,,APOC Trust Fund,AETH0194818771
9634,AFRO,Eastern Africa,Ethiopia,17,ET,ETH,Oromiya,1948,West Wellega,3194,BEGHI,18774,Abshala 2,34.51237,9.18262,Village,1,null,null,null,2011,2011 - 2016,,null,Mapping,Clinical,Nodule palpation,null,null,35,11,0.314,null,,null,,APOC Trust Fund,AETH0194818774
9635,AFRO,Eastern Africa,Ethiopia,17,ET,ETH,Oromiya,1948,West Wellega,3194,BEGHI,18774,Abshala 3,34.5114,9.18497,Village,1,null,null,null,2011,2011 - 2016,,null,Mapping,Clinical,Nodule palpation,null,null,35,3,0.086,null,,null,,APOC Trust Fund,AETH0194818774
9636,AFRO,Eastern Africa,Ethiopia,17,ET,ETH,Oromiya,1948,West Wellega,3194,BEGHI,18774,Abshala 4,34.51111,9.18908,Village,1,null,null,null,2011,2011 - 2016,,null,Mapping,Clinical,Nodule palpation,null,null,35,9,0.257,null,,null,,APOC Trust Fund,AETH0194818774
9637,AFRO,Eastern Africa,Ethiopia,17,ET,ETH,Oromiya,1948,West Wellega,3194,BEGHI,18774,Abshara Dong,34.50847,9.17964,Village,1,null,null,null,2011,2011 - 2016,,null,Mapping,Clinical,Nodule palpation,null,null,35,11,0.314,null,,null,,APOC Trust Fund,AETH0194818774
9638,AFRO,Eastern Africa,Ethiopia,17,ET,ETH,Oromiya,1948,Illu Aba bora,3155,Dega,18821,Abu,36.16234,8.58927,Village,1,null,null,null,2011,2011 - 2016,,null,Mapping,Clinical,Nodule palpation,null,null,32,11,0.344,null,,null,,APOC Trust Fund,AETH0194818821
9639,AFRO,Eastern Africa,Ethiopia,17,ET,ETH,Benshangul-Gumuz,1944,Asosa,3131,Kurmuk,18695,Abureha,34.4932,10.55131,Village,1,null,null,null,2012,2011 - 2016,,null,Mapping,Clinical,Nodule palpation,null,null,30,1,0.033,null,,null,,APOC Trust Fund,AETH0194418695
9640,AFRO,Eastern Africa,Ethiopia,17,ET,ETH,SNNP,1950,Sheka,3182,Andracha woreda,19126,ACHI,35.3167,7.5667,Village,1,null,null,null,null,Before 2001,,null,Mapping,Clinical,Nodule palpation,null,null,50,24,0.48,null,,null,,APOC Trust Fund,AETH0195019126
9641,AFRO,Eastern Africa,Ethiopia,17,ET,ETH,Gambela,1946,Mezhenger,3170,Godere,18718,ACHINE,35.0833,7.1667,Village,1,null,null,null,null,Before 2001,,null,Mapping,Clinical,Nodule palpation,null,null,37,11,0.297,null,,null,,APOC Trust Fund,AETH0194618718
9642,AFRO,Eastern Africa,Ethiopia,17,ET,ETH,Oromiya,1948,Horo Guduru,16644,Amuru,18760,Ada Kelate,36.90529,10.17466,Village,1,null,null,null,2012,2011 - 2016,,null,Mapping,Clinical,Nodule palpation,null,null,30,8,0.267,null,,null,,APOC Trust Fund,AETH0194818760
9643,AFRO,Eastern Africa,Ethiopia,17,ET,ETH,Amhara,1943,N. Gonder,3171,Quara,18650,ADARKAY,35.91093,12.20659,Village,1,null,null,null,null,,,null,Phase 1b Epidemiological evaluation,Parasitological,Parasitology (Skin biopsy),null,null,151,0,0,0,,null,APOC,APOC Trust Fund,AETH0194318650
9644,AFRO,Eastern Africa,Ethiopia,17,ET,ETH,SNNP,1950,Bench Maji,3134,North Bench,19236,ADDISU BI,35.371705,6.955786,Village,1,null,null,null,null,Before 2001,,null,Mapping,Clinical,Nodule palpation,null,null,30,11,0.367,null,,null,,APOC Trust Fund,AETH0195019236
9645,AFRO,Eastern Africa,Ethiopia,17,ET,ETH,Tigray,1951,W Tigray,3188,Kafta humera,19297,Adebay,36.76061,14.19483,Village,1,null,null,null,2014,2011 - 2016,,null,Mapping,Parasitological,Parasitology (Skin biopsy),null,null,229,0,0,null,,null,,APOC Trust Fund,AETH0195119297
9646,AFRO,Eastern Africa,Ethiopia,17,ET,ETH,Oromiya,1948,E. Wellega,3146,Nunu Kumba,18980,Adere aba konsh,36.77049,8.80757,Village,1,null,null,null,2011,2011 - 2016,,null,Mapping,Clinical,Nodule palpation,null,null,29,8,0.276,null,,null,,APOC Trust Fund,AETH0194818980
9647,AFRO,Eastern Africa,Ethiopia,17,ET,ETH,Tigray,1951,W Tigray,3188,Kafta humera,19297,Adi Goshu,37.30662,14.16216,Village,1,null,null,null,2014,2011 - 2016,,null,Mapping,Parasitological,Parasitology (Skin biopsy),null,null,235,0,0,null,,null,,APOC Trust Fund,AETH0195119297
9648,AFRO,Eastern Africa,Ethiopia,17,ET,ETH,Tigray,1951,W Tigray,3188,Tsegeda,19323,Adi salam,37.58967,13.53566,Village,1,null,null,null,2014,2011 - 2016,,null,Mapping,Parasitological,Parasitology (Skin biopsy),null,null,125,0,0,null,,null,,APOC Trust Fund,AETH0195119323
9649,AFRO,Eastern Africa,Ethiopia,17,ET,ETH,Oromiya,1948,Illu Aba bora,3155,Didesa,18830,Adis Alem,36.47275,8.05197,Village,1,null,null,null,2011,2011 - 2016,,null,Mapping,Clinical,Nodule palpation,null,null,30,4,0.133,null,,null,,APOC Trust Fund,AETH0194818830
9650,AFRO,Eastern Africa,Ethiopia,17,ET,ETH,Oromiya,1948,Jimma,3159,Gera,18865,Adis Ketema,36.05035,7.60254,Village,1,null,null,null,2011,2011 - 2016,,null,Mapping,Clinical,Nodule palpation,null,null,30,12,0.4,null,,null,,APOC Trust Fund,AETH0194818865
9651,AFRO,Eastern Africa,Ethiopia,17,ET,ETH,SNNP,1950,Bench Maji,3134,Guraferda,19192,ADISU BIR,35.35,6.8667,Village,1,null,null,null,null,Before 2001,,null,Mapping,Clinical,Nodule palpation,null,null,35,18,0.514,null,,null,,APOC Trust Fund,AETH0195019192
9652,AFRO,Eastern Africa,Ethiopia,17,ET,ETH,Oromiya,1948,Illu Aba bora,3155,Borecha,18794,Adosa,36.6477,8.44075,Village,1,null,null,null,2011,2011 - 2016,,null,Mapping,Clinical,Nodule palpation,null,null,33,6,0.182,null,,null,,APOC Trust Fund,AETH0194818794
9653,AFRO,Eastern Africa,Ethiopia,17,ET,ETH,Oromiya,1948,Illu Aba bora,3155,Borecha,18794,Adosa Kersa,36.65626,8.44037,Village,1,null,null,null,2011,2011 - 2016,,null,Mapping,Clinical,Nodule palpation,null,null,35,9,0.257,null,,null,,APOC Trust Fund,AETH0194818794
9654,AFRO,Eastern Africa,Ethiopia,17,ET,ETH,SNNP,1950,Dawro,3138,Tocha,19260,Aduma,37.05301,7.11985,Village,1,null,null,null,2012,2011 - 2016,,null,Mapping,Clinical,Nodule palpation,null,null,50,2,0.04,null,,null,,APOC Trust Fund,AETH0195019260
9655,AFRO,Eastern Africa,Ethiopia,17,ET,ETH,Oromiya,1948,West Wellega,3194,BEGHI,18774,Afillo 1,34.50914,9.18968,Village,1,null,null,null,2011,2011 - 2016,,null,Mapping,Clinical,Nodule palpation,null,null,35,15,0.429,null,,null,,APOC Trust Fund,AETH0194818774
9656,AFRO,Eastern Africa,Ethiopia,17,ET,ETH,Oromiya,1948,West Wellega,3194,BEGHI,18774,Afillo 3,34.50678,9.18778,Village,1,null,null,null,2011,2011 - 2016,,null,Mapping,Clinical,Nodule palpation,null,null,35,2,0.057,null,,null,,APOC Trust Fund,AETH0194818774
9657,AFRO,Eastern Africa,Ethiopia,17,ET,ETH,Oromiya,1948,E. Wellega,3146,Gudeya Bila,18883,Agalo,37.02975,9.23806,Village,1,null,null,null,2011,2011 - 2016,,null,Mapping,Clinical,Nodule palpation,null,null,30,1,0.033,null,,null,,APOC Trust Fund,AETH0194818883
9658,AFRO,Eastern Africa,Ethiopia,17,ET,ETH,SNNP,1950,Silti,3185,Dalocha,19163,Agam,38.22814,7.69356,Village,1,null,null,null,null,Before 2001,,null,Mapping,Clinical,Nodule palpation,null,null,30,0,0,null,,null,,APOC Trust Fund,AETH0195019163
9659,AFRO,Eastern Africa,Ethiopia,17,ET,ETH,Oromiya,1948,E. Wellega,3146,Nunu Kumba,18980,Agamsa,36.76044,8.82673,Village,1,null,null,null,2011,2011 - 2016,,null,Mapping,Clinical,Nodule palpation,null,null,25,8,0.32,null,,null,,APOC Trust Fund,AETH0194818980
9660,AFRO,Eastern Africa,Ethiopia,17,ET,ETH,Oromiya,1948,Illu Aba bora,3155,Didesa,18830,AGAYO,36.4167,8.05,Village,1,null,null,null,null,Before 2001,,null,Mapping,Clinical,Nodule palpation,null,null,42,0,0,null,,null,,APOC Trust Fund,AETH0194818830
9661,AFRO,Eastern Africa,Ethiopia,17,ET,ETH,Benshangul-Gumuz,1944,Kamashi,3161,Agalometi,18684,Agelo Met,35.77097,9.64848,Village,1,null,null,null,null,Before 2001,,null,Mapping,Clinical,Nodule palpation,null,null,35,6,0.171,null,,null,,APOC Trust Fund,AETH0194418684
9662,AFRO,Eastern Africa,Ethiopia,17,ET,ETH,SNNP,1950,Gurage,3152,Ezha,19179,Agena,38.01626,8.13721,Village,1,null,null,null,null,Before 2001,,null,Mapping,Clinical,Nodule palpation,null,null,30,0,0,null,,null,,APOC Trust Fund,AETH0195019179
9663,AFRO,Eastern Africa,Ethiopia,17,ET,ETH,SNNP,1950,West Gurage,22002,Enemore Ener,19177,Agere Geb,37.70542,8.03524,Village,1,null,null,null,null,Before 2001,,null,Mapping,Clinical,Nodule palpation,null,null,32,0,0,null,,null,,APOC Trust Fund,AETH0195019177
9664,AFRO,Eastern Africa,Ethiopia,17,ET,ETH,Oromiya,1948,Jimma,3159,Sokoru,19012,Ageyo,37.46189,8.03261,Village,1,null,null,null,2011,2011 - 2016,,null,Mapping,Clinical,Nodule palpation,null,null,43,3,0.07,null,,null,,APOC Trust Fund,AETH0194819012
9665,AFRO,Eastern Africa,Ethiopia,17,ET,ETH,Oromiya,1948,West Wellega,3194,Jarso,18914,Agu,35.26715,9.47719,Village,1,null,null,null,2012,2011 - 2016,,null,Mapping,Clinical,Nodule palpation,null,null,51,12,0.235,null,,null,,APOC Trust Fund,AETH0194818914
9666,AFRO,Eastern Africa,Ethiopia,17,ET,ETH,Benshangul-Gumuz,1944,Metekel,3169,Wombera,18703,Aibwagenen ( Washawag ),35.43301,10.4915,Village,1,null,null,null,2012,2011 - 2016,,null,Mapping,Clinical,Nodule palpation,null,null,50,8,0.16,null,,null,,APOC Trust Fund,AETH0194418703
9667,AFRO,Eastern Africa,Ethiopia,17,ET,ETH,Oromiya,1948,Jimma,3159,Tiro Afeta,19019,Akale,37.26335,7.92314,Village,1,null,null,null,2011,2011 - 2016,,null,Mapping,Clinical,Nodule palpation,null,null,33,0,0,null,,null,,APOC Trust Fund,AETH0194819019
9668,AFRO,Eastern Africa,Ethiopia,17,ET,ETH,Benshangul-Gumuz,1944,Asosa,3131,Menge,18698,Akande,34.80033,10.29401,Village,1,null,null,null,2011,2011 - 2016,,null,Mapping,Clinical,Nodule palpation,null,null,31,6,0.194,null,,null,,APOC Trust Fund,AETH0194418698
9669,AFRO,Eastern Africa,Ethiopia,17,ET,ETH,Gambela,1946,Itang,3157,Itang,18720,Akedo Hukumo,34.26812,8.19207,Village,1,null,null,null,2012,2011 - 2016,,null,Mapping,Clinical,Nodule palpation,null,null,32,0,0,null,,null,,APOC Trust Fund,AETH0194618720
9670,AFRO,Eastern Africa,Ethiopia,17,ET,ETH,SNNP,1950,Hadiya,3153,Anlemo,19127,Akegele,38.00807,7.67857,Village,1,null,null,null,null,Before 2001,,null,Mapping,Clinical,Nodule palpation,null,null,33,0,0,null,,null,,APOC Trust Fund,AETH0195019127
9671,AFRO,Eastern Africa,Ethiopia,17,ET,ETH,Gambela,1946,Agnua II,3127,Gog,18719,Akemagillo,34.17625,7.6319,Village,1,null,null,null,2012,2011 - 2016,,null,Mapping,Clinical,Nodule palpation,null,null,50,5,0.1,null,,null,,APOC Trust Fund,AETH0194618719
9672,AFRO,Eastern Africa,Ethiopia,17,ET,ETH,Oromiya,1948,West Wellega,3194,YUBDO,19034,Alaku,35.43143,8.95072,Village,1,null,null,null,2011,2011 - 2016,,null,Mapping,Clinical,Nodule palpation,null,null,35,1,0.029,null,,null,,APOC Trust Fund,AETH0194819034
9673,AFRO,Eastern Africa,Ethiopia,17,ET,ETH,Gambela,1946,Agnua II,3127,Gog,18719,Alari,34.23237,7.63843,Village,1,null,null,null,2012,2011 - 2016,,null,Mapping,Clinical,Nodule palpation,null,null,50,1,0.02,null,,null,,APOC Trust Fund,AETH0194618719
9674,AFRO,Eastern Africa,Ethiopia,17,ET,ETH,Oromiya,1948,West Wellega,3194,BEGHI,18774,Albula,34.48822,9.40272,Village,1,null,null,null,2011,2011 - 2016,,null,Mapping,Clinical,Nodule palpation,null,null,35,0,0,null,,null,,APOC Trust Fund,AETH0194818774
9675,AFRO,Eastern Africa,Ethiopia,17,ET,ETH,Oromiya,1948,Kelem Wellega,3164,Dalle Sedi,18811,ALEM TEFE,35.232765,8.901949,Village,1,null,null,null,null,Before 2001,,null,Mapping,Clinical,Nodule palpation,null,null,33,11,0.333,null,,null,,APOC Trust Fund,AETH0194818811
9676,AFRO,Eastern Africa,Ethiopia,17,ET,ETH,Oromiya,1948,Illu Aba bora,3155,Didesa,18830,Alemgena,36.45122,8.03911,Village,1,null,null,null,2011,2011 - 2016,,null,Mapping,Clinical,Nodule palpation,null,null,31,4,0.129,null,,null,,APOC Trust Fund,AETH0194818830
9677,AFRO,Eastern Africa,Ethiopia,17,ET,ETH,Oromiya,1948,Jimma,3159,Limmu Seka,18946,Alga,37.12431,8.54943,Village,1,null,null,null,null,Before 2001,,null,Mapping,Clinical,Nodule palpation,null,null,28,2,0.071,null,,null,,APOC Trust Fund,AETH0194818946
9678,AFRO,Eastern Africa,Ethiopia,17,ET,ETH,Oromiya,1948,Illu Aba bora,3155,Gechi,18861,Alga 1,36.55645,8.44802,Village,1,null,null,null,2011,2011 - 2016,,null,Mapping,Clinical,Nodule palpation,null,null,20,0,0,null,,null,,APOC Trust Fund,AETH0194818861
9679,AFRO,Eastern Africa,Ethiopia,17,ET,ETH,Oromiya,1948,Illu Aba bora,3155,Gechi,18861,Alga 2,36.55856,8.45428,Village,1,null,null,null,2011,2011 - 2016,,null,Mapping,Clinical,Nodule palpation,null,null,24,1,0.042,null,,null,,APOC Trust Fund,AETH0194818861
9680,AFRO,Eastern Africa,Ethiopia,17,ET,ETH,Amhara,1943,N. Gonder,3171,Takusa,18666,Alisefer,36.64125,12.15012,Village,1,null,null,null,2011,2011 - 2016,,null,Mapping,Clinical,Nodule palpation,null,null,32,2,0.063,null,,null,,APOC Trust Fund,AETH0194318666
9681,AFRO,Eastern Africa,Ethiopia,17,ET,ETH,SNNP,1950,Silti,3185,Silti,19250,Alkeso,38.27843,7.96162,Village,1,null,null,null,null,Before 2001,,null,Mapping,Clinical,Nodule palpation,null,null,30,0,0,null,,null,,APOC Trust Fund,AETH0195019250
9682,AFRO,Eastern Africa,Ethiopia,17,ET,ETH,Oromiya,1948,West Wellega,3194,NOLE K.,18973,Alle,35.65359,8.73076,Village,1,null,null,null,2011,2011 - 2016,,null,Mapping,Clinical,Nodule palpation,null,null,35,6,0.171,null,,null,,APOC Trust Fund,AETH0194818973
9683,AFRO,Eastern Africa,Ethiopia,17,ET,ETH,Oromiya,1948,S.W. Shewa,3181,Goro,19332,Allelu,37.81071,8.45236,Village,1,null,null,null,2014,2011 - 2016,,null,Mapping,Parasitological,Parasitology (Skin biopsy),null,null,192,0,0,null,,null,,APOC Trust Fund,AETH0194819332
9684,AFRO,Eastern Africa,Ethiopia,17,ET,ETH,Benshangul-Gumuz,1944,Asosa,3131,Asossa,18686,Alubo,34.49708,10.17322,Village,1,null,null,null,2012,2011 - 2016,,null,Mapping,Clinical,Nodule palpation,null,null,50,30,0.6,null,,null,,APOC Trust Fund,AETH0194418686
9685,AFRO,Eastern Africa,Ethiopia,17,ET,ETH,Amhara,1943,E. Gojam,3142,Machakel,18632,AMANUEL,37.601876,10.439498,Village,1,null,null,null,null,Before 2001,,null,Mapping,Clinical,Nodule palpation,null,null,31,0,0,null,,null,,APOC Trust Fund,AETH0194318632
9686,AFRO,Eastern Africa,Ethiopia,17,ET,ETH,Amhara,1943,E. Gojam,3142,Machakel,18632,Amare,37.51057,10.53152,Village,1,null,null,null,2014,2011 - 2016,,null,Mapping,Parasitological,Parasitology (Skin biopsy),null,null,240,0,0,null,,null,,APOC Trust Fund,AETH0194318632
9687,AFRO,Eastern Africa,Ethiopia,17,ET,ETH,Benshangul-Gumuz,1944,Asosa,3131,Asossa,18686,Amba-4,34.57211,10.06164,Village,1,null,null,null,2012,2011 - 2016,,null,Mapping,Clinical,Nodule palpation,null,null,35,0,0,null,,null,,APOC Trust Fund,AETH0194418686
9688,AFRO,Eastern Africa,Ethiopia,17,ET,ETH,Benshangul-Gumuz,1944,Asosa,3131,Homosha,18693,AMBA 1,34.6167,10.3167,Village,1,null,null,null,null,Before 2001,,null,Mapping,Clinical,Nodule palpation,null,null,35,1,0.029,null,,null,,APOC Trust Fund,AETH0194418693
9689,AFRO,Eastern Africa,Ethiopia,17,ET,ETH,Oromiya,1948,E. Wellega,3146,Gida Ayana,18866,AMBAW,36.643272,9.682721,Village,1,null,null,null,null,Before 2001,,null,Mapping,Clinical,Nodule palpation,null,null,30,0,0,null,,null,,APOC Trust Fund,AETH0194818866
9690,AFRO,Eastern Africa,Ethiopia,17,ET,ETH,Oromiya,1948,Illu Aba bora,3155,Bedele Rural,18781,Ambelta,36.53545,8.43547,Village,1,null,null,null,2011,2011 - 2016,,null,Mapping,Clinical,Nodule palpation,null,null,22,0,0,null,,null,,APOC Trust Fund,AETH0194818781
9691,AFRO,Eastern Africa,Ethiopia,17,ET,ETH,Oromiya,1948,W. Shewa,3190,Ambo Rural,18757,AMBO,37.868577,8.971609,Village,1,null,null,null,null,Before 2001,,null,Mapping,Clinical,Nodule palpation,null,null,30,0,0,null,,null,,APOC Trust Fund,AETH0194818757
9692,AFRO,Eastern Africa,Ethiopia,17,ET,ETH,Oromiya,1948,West Wellega,3194,L/ASSABI,18936,Amdo,35.57981,9.11301,Village,1,null,null,null,2011,2011 - 2016,,null,Mapping,Clinical,Nodule palpation,null,null,32,3,0.094,null,,null,,APOC Trust Fund,AETH0194818936
9693,AFRO,Eastern Africa,Ethiopia,17,ET,ETH,Oromiya,1948,West Wellega,3194,B/DIRMEJI,18771,Amera 1ffaa,35.75651,9.45484,Village,1,null,null,null,2011,2011 - 2016,,null,Mapping,Clinical,Nodule palpation,null,null,33,6,0.182,null,,null,,APOC Trust Fund,AETH0194818771
9694,AFRO,Eastern Africa,Ethiopia,17,ET,ETH,Benshangul-Gumuz,1944,Asosa,3131,Menge,18698,Amorolo,34.9594,10.31444,Village,1,null,null,null,2012,2011 - 2016,,null,Mapping,Clinical,Nodule palpation,null,null,30,18,0.6,null,,null,,APOC Trust Fund,AETH0194418698
9695,AFRO,Eastern Africa,Ethiopia,17,ET,ETH,Oromiya,1948,West Wellega,3194,B/COKORSA,18770,Amuruchando,35.6216,9.20912,Village,1,null,null,null,2012,2011 - 2016,,null,Mapping,Clinical,Nodule palpation,null,null,38,13,0.342,null,,null,,APOC Trust Fund,AETH0194818770
9696,AFRO,Eastern Africa,Ethiopia,17,ET,ETH,Oromiya,1948,Illu Aba bora,3155,Dega,18821,Ananif Gara,35.97497,8.64288,Village,1,null,null,null,2011,2011 - 2016,,null,Mapping,Clinical,Nodule palpation,null,null,35,7,0.2,null,,null,,APOC Trust Fund,AETH0194818821
9697,AFRO,Eastern Africa,Ethiopia,17,ET,ETH,Oromiya,1948,West Wellega,3194,BEGHI,18774,Andi 1,34.50774,9.17751,Village,1,null,null,null,2011,2011 - 2016,,null,Mapping,Clinical,Nodule palpation,null,null,35,16,0.457,null,,null,,APOC Trust Fund,AETH0194818774
9698,AFRO,Eastern Africa,Ethiopia,17,ET,ETH,SNNP,1950,Kafa,3160,Decha,19167,ANDRACHA,36.2667,7.2,Village,1,null,null,null,null,Before 2001,,null,Mapping,Clinical,Nodule palpation,null,null,30,17,0.567,null,,null,,APOC Trust Fund,AETH0195019167
9699,AFRO,Eastern Africa,Ethiopia,17,ET,ETH,Oromiya,1948,West Wellega,3194,BEGHI,18774,Anfillo 2,34.50784,9.18863,Village,1,null,null,null,2011,2011 - 2016,,null,Mapping,Clinical,Nodule palpation,null,null,35,18,0.514,null,,null,,APOC Trust Fund,AETH0194818774
9700,AFRO,Eastern Africa,Ethiopia,17,ET,ETH,SNNP,1950,Gamo Gofa,3148,MELOKOZA,19220,ANGILA,36.540949,6.368311,Village,1,null,null,null,null,Before 2001,,null,Mapping,Clinical,Nodule palpation,null,null,32,2,0.063,null,,null,,APOC Trust Fund,AETH0195019220
9701,AFRO,Eastern Africa,Ethiopia,17,ET,ETH,SNNP,1950,Gamo Gofa,3148,KAMEBA,19207,ANIKA,37.158728,6.202664,Village,1,null,null,null,null,Before 2001,,null,Mapping,Clinical,Nodule palpation,null,null,34,0,0,null,,null,,APOC Trust Fund,AETH0195019207
9702,AFRO,Eastern Africa,Ethiopia,17,ET,ETH,Amhara,1943,N. Gonder,3171,Quara,18650,ANKELAWISA,36.16284,12.4688,Village,1,null,null,null,null,,,null,Phase 1b Epidemiological evaluation,Parasitological,Parasitology (Skin biopsy),null,null,163,0,0,0,,null,APOC,APOC Trust Fund,AETH0194318650
9703,AFRO,Eastern Africa,Ethiopia,17,ET,ETH,Oromiya,1948,West Wellega,3194,BEGHI,18774,Arabi,34.50108,9.39421,Village,1,null,null,null,2011,2011 - 2016,,null,Mapping,Clinical,Nodule palpation,null,null,35,0,0,null,,null,,APOC Trust Fund,AETH0194818774
9704,AFRO,Eastern Africa,Ethiopia,17,ET,ETH,SNNP,1950,Gamo Gofa,3148,Arbaminch zuria,19128,ARBA MINC,37.6,6.085423,Village,1,null,null,null,null,Before 2001,,null,Mapping,Clinical,Nodule palpation,null,null,30,0,0,null,,null,,APOC Trust Fund,AETH0195019128
9705,AFRO,Eastern Africa,Ethiopia,17,ET,ETH,SNNP,1950,South Omo,3186,Salamago,19243,ARBUJA,36.05,6.2667,Village,1,null,null,null,null,Before 2001,,null,Mapping,Clinical,Nodule palpation,null,null,33,5,0.152,null,,null,,APOC Trust Fund,AETH0195019243
9706,AFRO,Eastern Africa,Ethiopia,17,ET,ETH,Oromiya,1948,Bale,3132,Meddawalabu,18954,Arda Oda,39.548333,5.823167,Village,1,null,null,null,2014,2011 - 2016,,null,Mapping,Parasitological,Parasitology (Skin biopsy),null,null,206,0,0,null,,null,,APOC Trust Fund,AETH0194818954
9707,AFRO,Eastern Africa,Ethiopia,17,ET,ETH,Oromiya,1948,Jimma,3159,Limmu kossa,18947,Arengama 1,36.77964,7.90152,Village,1,null,null,null,2011,2011 - 2016,,null,Mapping,Clinical,Nodule palpation,null,null,32,10,0.313,null,,null,,APOC Trust Fund,AETH0194818947
9708,AFRO,Eastern Africa,Ethiopia,17,ET,ETH,Oromiya,1948,Jimma,3159,Limmu kossa,18947,Arengama 2,36.76658,7.91214,Village,1,null,null,null,2011,2011 - 2016,,null,Mapping,Clinical,Nodule palpation,null,null,30,9,0.3,null,,null,,APOC Trust Fund,AETH0194818947
9709,AFRO,Eastern Africa,Ethiopia,17,ET,ETH,Amhara,1943,S. Gonder,3178,Simada,18661,AREOGE ME,38.3,11.2333,Village,1,null,null,null,null,Before 2001,,null,Mapping,Clinical,Nodule palpation,null,null,50,0,0,null,,null,,APOC Trust Fund,AETH0194318661
9710,AFRO,Eastern Africa,Ethiopia,17,ET,ETH,Oromiya,1948,West Wellega,3194,NOLE K.,18973,Arere Gute,35.59694,8.74445,Village,1,null,null,null,2011,2011 - 2016,,null,Mapping,Clinical,Nodule palpation,null,null,35,9,0.257,null,,null,,APOC Trust Fund,AETH0194818973
9711,AFRO,Eastern Africa,Ethiopia,17,ET,ETH,SNNP,1950,Segen,22487,DERASHE,19159,Arguba-Tenao,37.40641,5.7247,Village,1,null,null,null,2014,2011 - 2016,,null,Mapping,Parasitological,Parasitology (Skin biopsy),null,null,186,0,0,null,,null,,APOC Trust Fund,AETH0195019159
9712,AFRO,Eastern Africa,Ethiopia,17,ET,ETH,Oromiya,1948,E. Wellega,3146,Jimma Arjo,18919,ARJO,36.485209,8.784938,Village,1,null,null,null,null,Before 2001,,null,Mapping,Clinical,Nodule palpation,null,null,31,2,0.065,null,,null,,APOC Trust Fund,AETH0194818919
9713,AFRO,Eastern Africa,Ethiopia,17,ET,ETH,Benshangul-Gumuz,1944,Asosa,3131,Menge,18698,Arkawit,34.85558,10.31427,Village,1,null,null,null,2011,2011 - 2016,,null,Mapping,Clinical,Nodule palpation,null,null,50,15,0.3,null,,null,,APOC Trust Fund,AETH0194418698
9714,AFRO,Eastern Africa,Ethiopia,17,ET,ETH,Benshangul-Gumuz,1944,Asosa,3131,Menge,18698,ARKAWIT,34.8572,10.31837,Village,1,null,null,null,2012,2011 - 2016,,null,Mapping,Parasitological,Parasitology (Skin biopsy),null,null,69,7,0.101,null,,null,,APOC Trust Fund,AETH0194418698
9715,AFRO,Eastern Africa,Ethiopia,17,ET,ETH,Benshangul-Gumuz,1944,Asosa,3131,Menge,18698,ARKAWIT,34.8572,10.31837,Village,1,null,null,null,2012,2011 - 2016,,null,Mapping,Clinical,Nodule palpation,null,null,69,14,0.203,null,,null,,APOC Trust Fund,AETH0194418698
9716,AFRO,Eastern Africa,Ethiopia,17,ET,ETH,Amhara,1943,N. Gonder,3171,Quara,18650,ARKAWONZ,36.10859,12.52271,Village,1,null,null,null,null,,,null,Phase 1b Epidemiological evaluation,Parasitological,Parasitology (Skin biopsy),null,null,176,0,0,0,,null,APOC,APOC Trust Fund,AETH0194318650
9717,AFRO,Eastern Africa,Ethiopia,17,ET,ETH,Oromiya,1948,West Wellega,3194,NOLE K.,18973,Aroje,35.56925,8.73196,Village,1,null,null,null,2011,2011 - 2016,,null,Mapping,Clinical,Nodule palpation,null,null,35,12,0.343,null,,null,,APOC Trust Fund,AETH0194818973
9718,AFRO,Eastern Africa,Ethiopia,17,ET,ETH,Oromiya,1948,West Wellega,3194,B/DIRMEJI,18771,Aroji,35.63185,9.29325,Village,1,null,null,null,2011,2011 - 2016,,null,Mapping,Clinical,Nodule palpation,null,null,33,7,0.212,null,,null,,APOC Trust Fund,AETH0194818771
9719,AFRO,Eastern Africa,Ethiopia,17,ET,ETH,Oromiya,1948,W. Shewa,3190,Dano,18814,Aroji,37.2785,8.83222,Village,1,null,null,null,2011,2011 - 2016,,null,Mapping,Clinical,Nodule palpation,null,null,32,3,0.094,null,,null,,APOC Trust Fund,AETH0194818814
9720,AFRO,Eastern Africa,Ethiopia,17,ET,ETH,Oromiya,1948,Illu Aba bora,3155,Nono Sale,18979,Asendabo,35.41836,7.89181,Village,1,null,null,null,2011,2011 - 2016,,null,Mapping,Clinical,Nodule palpation,null,null,35,13,0.371,null,,null,,APOC Trust Fund,AETH0194818979
9721,AFRO,Eastern Africa,Ethiopia,17,ET,ETH,Benshangul-Gumuz,1944,Asosa,3131,Sherkole,18702,Ashesheko 01,34.92627,10.7624,Village,1,null,null,null,2011,2011 - 2016,,null,Mapping,Clinical,Nodule palpation,null,null,32,0,0,null,,null,,APOC Trust Fund,AETH0194418702
9722,AFRO,Eastern Africa,Ethiopia,17,ET,ETH,Benshangul-Gumuz,1944,Asosa,3131,Sherkole,18702,Ashesheko 02,34.90748,10.74407,Village,1,null,null,null,2011,2011 - 2016,,null,Mapping,Clinical,Nodule palpation,null,null,33,0,0,null,,null,,APOC Trust Fund,AETH0194418702
9723,AFRO,Eastern Africa,Ethiopia,17,ET,ETH,Benshangul-Gumuz,1944,Asosa,3131,Asossa,18686,Ashesheko 03,34.40604,10.24447,Village,1,null,null,null,2011,2011 - 2016,,null,Mapping,Clinical,Nodule palpation,null,null,34,1,0.029,null,,null,,APOC Trust Fund,AETH0194418686
9724,AFRO,Eastern Africa,Ethiopia,17,ET,ETH,Benshangul-Gumuz,1944,Asosa,3131,Menge,18698,Ashuman,34.77673,10.30189,Village,1,null,null,null,2011,2011 - 2016,,null,Mapping,Clinical,Nodule palpation,null,null,33,2,0.061,null,,null,,APOC Trust Fund,AETH0194418698
9725,AFRO,Eastern Africa,Ethiopia,17,ET,ETH,Amhara,1943,West Gojam,3193,Debub Achefer,18576,ASINWARA,37.033358,11.751866,Village,1,null,null,null,null,Before 2001,,null,Mapping,Clinical,Nodule palpation,null,null,43,0,0,null,,null,,APOC Trust Fund,AETH0194318576
9726,AFRO,Eastern Africa,Ethiopia,17,ET,ETH,Oromiya,1948,West Arsi,3689,Siraro,19010,ASORE,38.1,7.1667,Village,1,null,null,null,null,Before 2001,,null,Mapping,Clinical,Nodule palpation,null,null,30,3,0.1,null,,null,,APOC Trust Fund,AETH0194819010
9727,AFRO,Eastern Africa,Ethiopia,17,ET,ETH,Benshangul-Gumuz,1944,Asosa,3131,Asossa,18686,ASOSA,34.553511,10.068543,Village,1,null,null,null,null,Before 2001,,null,Mapping,Clinical,Nodule palpation,null,null,12,1,0.083,null,,null,,APOC Trust Fund,AETH0194418686
9728,AFRO,Eastern Africa,Ethiopia,17,ET,ETH,Oromiya,1948,Illu Aba bora,3155,Borecha,18794,Ate Agalo,36.65134,8.44097,Village,1,null,null,null,2011,2011 - 2016,,null,Mapping,Clinical,Nodule palpation,null,null,30,9,0.3,null,,null,,APOC Trust Fund,AETH0194818794
9729,AFRO,Eastern Africa,Ethiopia,17,ET,ETH,SNNP,1950,Sheka,3182,Masha woreda,19226,ATILE,35.4,7.7667,Village,1,null,null,null,null,Before 2001,,null,Mapping,Clinical,Nodule palpation,null,null,38,3,0.079,null,,null,,APOC Trust Fund,AETH0195019226
9730,AFRO,Eastern Africa,Ethiopia,17,ET,ETH,Oromiya,1948,Jimma,3159,Limmu Seka,18946,ATNAGO,36.942831,8.323328,Village,1,null,null,null,null,Before 2001,,null,Mapping,Clinical,Nodule palpation,null,null,32,8,0.25,null,,null,,APOC Trust Fund,AETH0194818946
9731,AFRO,Eastern Africa,Ethiopia,17,ET,ETH,Benshangul-Gumuz,1944,Asosa,3131,Sherkole,18702,Atsozi,34.91935,10.75317,Village,1,null,null,null,2011,2011 - 2016,,null,Mapping,Clinical,Nodule palpation,null,null,33,1,0.03,null,,null,,APOC Trust Fund,AETH0194418702
9732,AFRO,Eastern Africa,Ethiopia,17,ET,ETH,Oromiya,1948,West Wellega,3194,L/ASSABI,18936,Awandar,35.63974,9.08438,Village,1,null,null,null,2011,2011 - 2016,,null,Mapping,Clinical,Nodule palpation,null,null,35,3,0.086,null,,null,,APOC Trust Fund,AETH0194818936
9733,AFRO,Eastern Africa,Ethiopia,17,ET,ETH,SNNP,1950,Gamo Gofa,3148,D/GOFA,19153,Awande,36.9666,6.36533,Village,1,null,null,null,2014,2011 - 2016,,null,Mapping,Parasitological,Parasitology (Skin biopsy),null,null,268,0,0,null,,null,,APOC Trust Fund,AETH0195019153
9734,AFRO,Eastern Africa,Ethiopia,17,ET,ETH,SNNP,1950,Bench Maji,3134,South Bench,19254,Aware,35.59464,7.01906,Village,1,null,null,null,null,,,null,Phase 1a Epidemiological evaluation,Parasitological,Parasitology (Skin biopsy),null,null,214,41,0.192,1.140073127,,null,APOC,APOC Trust Fund,AETH0195019254
9735,AFRO,Eastern Africa,Ethiopia,17,ET,ETH,Oromiya,1948,Illu Aba bora,3155,Bure,18799,Awate,35.27462,8.29724,Village,1,null,null,null,2011,2011 - 2016,,null,Mapping,Clinical,Nodule palpation,null,null,35,15,0.429,null,,null,,APOC Trust Fund,AETH0194818799
9736,AFRO,Eastern Africa,Ethiopia,17,ET,ETH,Amhara,1943,N. Gonder,3171,Chilga,18562,Awguben,37.11781,12.54686,Village,1,null,null,null,2011,2011 - 2016,,null,Mapping,Clinical,Nodule palpation,null,null,47,3,0.064,null,,null,,APOC Trust Fund,AETH0194318562
9737,AFRO,Eastern Africa,Ethiopia,17,ET,ETH,Amhara,1943,N. Gonder,3171,Quara,18650,AYDEWA,36.08983,12.55844,Village,1,null,null,null,null,,,null,Phase 1b Epidemiological evaluation,Parasitological,Parasitology (Skin biopsy),null,null,146,0,0,0,,null,APOC,APOC Trust Fund,AETH0194318650
9738,AFRO,Eastern Africa,Ethiopia,17,ET,ETH,Oromiya,1948,W. Shewa,3190,Chelia,18801,BABICH,37.535283,8.959775,Village,1,null,null,null,null,Before 2001,,null,Mapping,Clinical,Nodule palpation,null,null,30,1,0.033,null,,null,,APOC Trust Fund,AETH0194818801
9739,AFRO,Eastern Africa,Ethiopia,17,ET,ETH,Oromiya,1948,Illu Aba bora,3155,Halu,18896,Babo,35.33938,8.19599,Village,1,null,null,null,2011,2011 - 2016,,null,Mapping,Clinical,Nodule palpation,null,null,30,10,0.333,null,,null,,APOC Trust Fund,AETH0194818896
9740,AFRO,Eastern Africa,Ethiopia,17,ET,ETH,Oromiya,1948,Jimma,3159,Limmu kossa,18947,Babo,37.01928,8.1969,Village,1,null,null,null,2011,2011 - 2016,,null,Mapping,Clinical,Nodule palpation,null,null,30,8,0.267,null,,null,,APOC Trust Fund,AETH0194818947
9741,AFRO,Eastern Africa,Ethiopia,17,ET,ETH,Oromiya,1948,Illu Aba bora,3155,Halu,18896,BABO,35.33938,8.19599,Village,1,null,null,null,2012,2011 - 2016,,null,Mapping,Parasitological,Parasitology (Skin biopsy),null,null,103,35,0.34,null,,null,,APOC Trust Fund,AETH0194818896
9742,AFRO,Eastern Africa,Ethiopia,17,ET,ETH,Oromiya,1948,Illu Aba bora,3155,Halu,18896,BABO,35.33938,8.19599,Village,1,null,null,null,2012,2011 - 2016,,null,Mapping,Clinical,Nodule palpation,null,null,103,13,0.126,null,,null,,APOC Trust Fund,AETH0194818896
9743,AFRO,Eastern Africa,Ethiopia,17,ET,ETH,Benshangul-Gumuz,1944,Kamashi,3161,Sedal,18701,Babokori,35.36339,9.92621,Village,1,null,null,null,2011,2011 - 2016,,null,Mapping,Clinical,Nodule palpation,null,null,32,6,0.188,null,,null,,APOC Trust Fund,AETH0194418701
9744,AFRO,Eastern Africa,Ethiopia,17,ET,ETH,Oromiya,1948,West Wellega,3194,NOLE K.,18973,Badaso,35.57326,8.73137,Village,1,null,null,null,2011,2011 - 2016,,null,Mapping,Clinical,Nodule palpation,null,null,35,5,0.143,null,,null,,APOC Trust Fund,AETH0194818973
9745,AFRO,Eastern Africa,Ethiopia,17,ET,ETH,Oromiya,1948,West Wellega,3194,M/SIBU,18949,Baddeessaa,34.95153,9.87127,Village,1,null,null,null,2011,2011 - 2016,,null,Mapping,Clinical,Nodule palpation,null,null,35,4,0.114,null,,null,,APOC Trust Fund,AETH0194818949
9746,AFRO,Eastern Africa,Ethiopia,17,ET,ETH,Oromiya,1948,Jimma,3159,Chora Botor,18808,Badeso,37.14858,8.24,Village,1,null,null,null,2011,2011 - 2016,,null,Mapping,Clinical,Nodule palpation,null,null,33,12,0.364,null,,null,,APOC Trust Fund,AETH0194818808
9747,AFRO,Eastern Africa,Ethiopia,17,ET,ETH,Oromiya,1948,Illu Aba bora,3155,Bure,18799,Badi Halelu,35.04057,8.30819,Village,1,null,null,null,2011,2011 - 2016,,null,Mapping,Clinical,Nodule palpation,null,null,32,14,0.438,null,,null,,APOC Trust Fund,AETH0194818799
9748,AFRO,Eastern Africa,Ethiopia,17,ET,ETH,Oromiya,1948,Illu Aba bora,3155,Bure,18799,BADI HALELU,35.14895,8.18416,Village,1,null,null,null,2012,2011 - 2016,,null,Mapping,Parasitological,Parasitology (Skin biopsy),null,null,193,56,0.29,null,,null,,APOC Trust Fund,AETH0194818799
9749,AFRO,Eastern Africa,Ethiopia,17,ET,ETH,Oromiya,1948,Illu Aba bora,3155,Bure,18799,BADI HALELU,35.14895,8.18416,Village,1,null,null,null,2012,2011 - 2016,,null,Mapping,Clinical,Nodule palpation,null,null,193,36,0.187,null,,null,,APOC Trust Fund,AETH0194818799
9750,AFRO,Eastern Africa,Ethiopia,17,ET,ETH,Oromiya,1948,West Wellega,3194,NOLE K.,18973,Bafano,35.6619,8.75456,Village,1,null,null,null,2011,2011 - 2016,,null,Mapping,Clinical,Nodule palpation,null,null,33,5,0.152,null,,null,,APOC Trust Fund,AETH0194818973
9751,AFRO,Eastern Africa,Ethiopia,17,ET,ETH,Oromiya,1948,West Wellega,3194,GENJI,18852,Bago,35.58266,8.97433,Village,1,null,null,null,2011,2011 - 2016,,null,Mapping,Clinical,Nodule palpation,null,null,31,0,0,null,,null,,APOC Trust Fund,AETH0194818852
9752,AFRO,Eastern Africa,Ethiopia,17,ET,ETH,Oromiya,1948,W. Shewa,3190,Nono,18977,Bahirzaf,37.3566,8.4902,Village,1,null,null,null,2011,2011 - 2016,,null,Mapping,Clinical,Nodule palpation,null,null,38,2,0.053,null,,null,,APOC Trust Fund,AETH0194818977
9753,AFRO,Eastern Africa,Ethiopia,17,ET,ETH,Tigray,1951,W Tigray,3188,Kafta humera,19297,Bahker,36.85215,13.98563,Village,1,null,null,null,2014,2011 - 2016,,null,Mapping,Parasitological,Parasitology (Skin biopsy),null,null,217,0,0,null,,null,,APOC Trust Fund,AETH0195119297
9754,AFRO,Eastern Africa,Ethiopia,17,ET,ETH,Oromiya,1948,W. Shewa,3190,Chelia,18801,Baji Sori,37.30085,8.91259,Village,1,null,null,null,2011,2011 - 2016,,null,Mapping,Clinical,Nodule palpation,null,null,32,0,0,null,,null,,APOC Trust Fund,AETH0194818801
9755,AFRO,Eastern Africa,Ethiopia,17,ET,ETH,Oromiya,1948,W. Shewa,3190,Bako Tibe,18777,BAKO,37.051875,9.144331,Village,1,null,null,null,null,Before 2001,,null,Mapping,Clinical,Nodule palpation,null,null,30,10,0.333,null,,null,,APOC Trust Fund,AETH0194818777
9756,AFRO,Eastern Africa,Ethiopia,17,ET,ETH,Amhara,1943,West Gojam,3193,Womberma,18675,Balema,36.98295,10.60546,Village,1,null,null,null,2014,2011 - 2016,,null,Mapping,Parasitological,Parasitology (Skin biopsy),null,null,240,0,0,null,,null,,APOC Trust Fund,AETH0194318675
9757,AFRO,Eastern Africa,Ethiopia,17,ET,ETH,Benshangul-Gumuz,1944,Asosa,3131,Homosha,18693,Bambadon,34.52157,10.45106,Village,1,null,null,null,2012,2011 - 2016,,null,Mapping,Clinical,Nodule palpation,null,null,30,5,0.167,null,,null,,APOC Trust Fund,AETH0194418693
9758,AFRO,Eastern Africa,Ethiopia,17,ET,ETH,Benshangul-Gumuz,1944,Asosa,3131,Bambasi,18687,BAMBESI,34.706099,9.708728,Village,1,null,null,null,null,Before 2001,,null,Mapping,Clinical,Nodule palpation,null,null,33,0,0,null,,null,,APOC Trust Fund,AETH0194418687
9759,AFRO,Eastern Africa,Ethiopia,17,ET,ETH,Oromiya,1948,Illu Aba bora,3155,Bedele Rural,18781,Banko,36.53995,8.44783,Village,1,null,null,null,2011,2011 - 2016,,null,Mapping,Clinical,Nodule palpation,null,null,35,12,0.343,null,,null,,APOC Trust Fund,AETH0194818781
9760,AFRO,Eastern Africa,Ethiopia,17,ET,ETH,Benshangul-Gumuz,1944,Metekel,3169,Guba,18692,Baperaro (Vafa),35.1796,10.98034,Village,1,null,null,null,2011,2011 - 2016,,null,Mapping,Clinical,Nodule palpation,null,null,20,1,0.05,null,,null,,APOC Trust Fund,AETH0194418692
9761,AFRO,Eastern Africa,Ethiopia,17,ET,ETH,Amhara,1943,Awi,3126,Jawi,18616,Barawi,36.425233,11.635867,Village,1,null,null,null,2012,2011 - 2016,,null,Mapping,Clinical,Nodule palpation,null,null,50,0,0,null,,null,,APOC Trust Fund,AETH0194318616
9762,AFRO,Eastern Africa,Ethiopia,17,ET,ETH,Amhara,1943,N. Gonder,3171,Chilga,18562,Barengua,36.83707,12.58175,Village,1,null,null,null,2011,2011 - 2016,,null,Mapping,Clinical,Nodule palpation,null,null,35,1,0.029,null,,null,,APOC Trust Fund,AETH0194318562
9763,AFRO,Eastern Africa,Ethiopia,17,ET,ETH,Benshangul-Gumuz,1944,Tongo Sp. Wereda,3187,Mao-Komo,18697,Bari,34.45199,9.45704,Village,1,null,null,null,2011,2011 - 2016,,null,Mapping,Clinical,Nodule palpation,null,null,34,3,0.088,null,,null,,APOC Trust Fund,AETH0194418697
9764,AFRO,Eastern Africa,Ethiopia,17,ET,ETH,Oromiya,1948,W. Shewa,3190,Dano,18814,Barochu,37.37315,8.85037,Village,1,null,null,null,2011,2011 - 2016,,null,Mapping,Clinical,Nodule palpation,null,null,27,1,0.037,null,,null,,APOC Trust Fund,AETH0194818814
9765,AFRO,Eastern Africa,Ethiopia,17,ET,ETH,Benshangul-Gumuz,1944,Metekel,3169,Bullen,18689,Baruda,35.86832,10.53569,Village,1,null,null,null,null,Before 2001,,null,Mapping,Clinical,Nodule palpation,null,null,30,2,0.067,null,,null,,APOC Trust Fund,AETH0194418689
9766,AFRO,Eastern Africa,Ethiopia,17,ET,ETH,Oromiya,1948,E. Shewa,3144,Adama Town,18746,BATE TUFU,39.1833,8.4667,Village,1,null,null,null,null,Before 2001,,null,Mapping,Clinical,Nodule palpation,null,null,30,0,0,null,,null,,APOC Trust Fund,AETH0194818746
9767,AFRO,Eastern Africa,Ethiopia,17,ET,ETH,Tigray,1951,W Tigray,3188,Kafta humera,19297,Beaker,36.85,13.98,Village,1,null,null,null,2001,2001 - 2005,,null,Mapping,Clinical,Nodule palpation,null,null,30,2,0.067,null,,null,,APOC Trust Fund,AETH0195119297
9768,AFRO,Eastern Africa,Ethiopia,17,ET,ETH,Oromiya,1948,Jimma,3159,Setema,18998,BECHA,36.40572,8.04602,Village,1,null,null,null,2012,2011 - 2016,,null,Mapping,Parasitological,Parasitology (Skin biopsy),null,null,181,19,0.105,null,,null,,APOC Trust Fund,AETH0194818998
9769,AFRO,Eastern Africa,Ethiopia,17,ET,ETH,Oromiya,1948,Jimma,3159,Setema,18998,BECHA,36.40572,8.04602,Village,1,null,null,null,2012,2011 - 2016,,null,Mapping,Clinical,Nodule palpation,null,null,181,33,0.182,null,,null,,APOC Trust Fund,AETH0194818998
9770,AFRO,Eastern Africa,Ethiopia,17,ET,ETH,Oromiya,1948,Illu Aba bora,3155,Bedele Rural,18781,BEDELE,36.351925,8.499948,Village,1,null,null,null,null,Before 2001,,null,Mapping,Clinical,Nodule palpation,null,null,30,0,0,null,,null,,APOC Trust Fund,AETH0194818781
9771,AFRO,Eastern Africa,Ethiopia,17,ET,ETH,Oromiya,1948,Illu Aba bora,3155,Nono Sale,18979,Bedesa,35.19999,7.99338,Village,1,null,null,null,2011,2011 - 2016,,null,Mapping,Clinical,Nodule palpation,null,null,30,12,0.4,null,,null,,APOC Trust Fund,AETH0194818979
9772,AFRO,Eastern Africa,Ethiopia,17,ET,ETH,SNNP,1950,Wolayita,3195,DAMOTWOYIDE,19157,BEDESSA,37.937252,6.872821,Village,1,null,null,null,null,Before 2001,,null,Mapping,Clinical,Nodule palpation,null,null,31,0,0,null,,null,,APOC Trust Fund,AETH0195019157
9773,AFRO,Eastern Africa,Ethiopia,17,ET,ETH,Oromiya,1948,West Wellega,3194,BEGHI,18774,BEGI,34.535209,9.332211,Village,1,null,null,null,null,Before 2001,,null,Mapping,Clinical,Nodule palpation,null,null,33,3,0.091,null,,null,,APOC Trust Fund,AETH0194818774
9774,AFRO,Eastern Africa,Ethiopia,17,ET,ETH,Benshangul-Gumuz,1944,Kamashi,3161,Sedal,18701,Begundy,35.2972,10.44538,Village,1,null,null,null,2012,2011 - 2016,,null,Mapping,Clinical,Nodule palpation,null,null,50,3,0.06,null,,null,,APOC Trust Fund,AETH0194418701
9775,AFRO,Eastern Africa,Ethiopia,17,ET,ETH,Benshangul-Gumuz,1944,Kamashi,3161,Sedal,18701,Beji,35.36365,9.92539,Village,1,null,null,null,2011,2011 - 2016,,null,Mapping,Clinical,Nodule palpation,null,null,31,7,0.226,null,,null,,APOC Trust Fund,AETH0194418701
9776,AFRO,Eastern Africa,Ethiopia,17,ET,ETH,Benshangul-Gumuz,1944,Kamashi,3161,Sedal,18701,BEJI,35.36354,9.94273,Village,1,null,null,null,2012,2011 - 2016,,null,Mapping,Parasitological,Parasitology (Skin biopsy),null,null,60,21,0.35,null,,null,,APOC Trust Fund,AETH0194418701
9777,AFRO,Eastern Africa,Ethiopia,17,ET,ETH,Benshangul-Gumuz,1944,Kamashi,3161,Sedal,18701,BEJI,35.36354,9.94273,Village,1,null,null,null,2012,2011 - 2016,,null,Mapping,Clinical,Nodule palpation,null,null,60,3,0.05,null,,null,,APOC Trust Fund,AETH0194418701
9778,AFRO,Eastern Africa,Ethiopia,17,ET,ETH,Oromiya,1948,Jimma,3159,Gera,18865,Bela Lameffa,36.04884,7.59941,Village,1,null,null,null,2011,2011 - 2016,,null,Mapping,Clinical,Nodule palpation,null,null,30,10,0.333,null,,null,,APOC Trust Fund,AETH0194818865
9779,AFRO,Eastern Africa,Ethiopia,17,ET,ETH,Oromiya,1948,Jimma,3159,Gera,18865,Bela tokofa,36.04635,7.5897,Village,1,null,null,null,2011,2011 - 2016,,null,Mapping,Clinical,Nodule palpation,null,null,30,9,0.3,null,,null,,APOC Trust Fund,AETH0194818865
9780,AFRO,Eastern Africa,Ethiopia,17,ET,ETH,Benshangul-Gumuz,1944,Metekel,3169,Wombera,18703,Belewa,35.41568,10.51031,Village,1,null,null,null,2012,2011 - 2016,,null,Mapping,Clinical,Nodule palpation,null,null,50,14,0.28,null,,null,,APOC Trust Fund,AETH0194418703
9781,AFRO,Eastern Africa,Ethiopia,17,ET,ETH,Benshangul-Gumuz,1944,Asosa,3131,Menge,18698,Bellhodo,34.85604,10.32055,Village,1,null,null,null,2011,2011 - 2016,,null,Mapping,Clinical,Nodule palpation,null,null,31,1,0.032,null,,null,,APOC Trust Fund,AETH0194418698
9782,AFRO,Eastern Africa,Ethiopia,17,ET,ETH,Benshangul-Gumuz,1944,Tongo Sp. Wereda,3187,Mao-Komo,18697,Benishuba,34.35808,9.54578,Village,1,null,null,null,2011,2011 - 2016,,null,Mapping,Clinical,Nodule palpation,null,null,35,2,0.057,null,,null,,APOC Trust Fund,AETH0194418697
9783,AFRO,Eastern Africa,Ethiopia,17,ET,ETH,Oromiya,1948,Illu Aba bora,3155,Mako,18952,Berayimole,35.96625,8.69499,Village,1,null,null,null,2011,2011 - 2016,,null,Mapping,Clinical,Nodule palpation,null,null,33,11,0.333,null,,null,,APOC Trust Fund,AETH0194818952
9784,AFRO,Eastern Africa,Ethiopia,17,ET,ETH,Amhara,1943,N. Gonder,3171,Tsegede,18670,Bereket,36.54356,13.36595,Village,1,null,null,null,2014,2011 - 2016,,null,Mapping,Parasitological,Parasitology (Skin biopsy),null,null,74,0,0,null,,null,,APOC Trust Fund,AETH0194318670
9785,AFRO,Eastern Africa,Ethiopia,17,ET,ETH,Benshangul-Gumuz,1944,Asosa,3131,Sherkole,18702,Berjella,34.92303,10.75697,Village,1,null,null,null,2011,2011 - 2016,,null,Mapping,Clinical,Nodule palpation,null,null,31,0,0,null,,null,,APOC Trust Fund,AETH0194418702
9786,AFRO,Eastern Africa,Ethiopia,17,ET,ETH,Benshangul-Gumuz,1944,Metekel,3169,Wombera,18703,Berka Tushi,35.388691,10.57219,Village,1,null,null,null,2012,2011 - 2016,,null,Mapping,Clinical,Nodule palpation,null,null,50,12,0.24,null,,null,,APOC Trust Fund,AETH0194418703
9787,AFRO,Eastern Africa,Ethiopia,17,ET,ETH,Oromiya,1948,Illu Aba bora,3155,Chora,18807,Bero 2,36.2269,8.49351,Village,1,null,null,null,2011,2011 - 2016,,null,Mapping,Clinical,Nodule palpation,null,null,35,13,0.371,null,,null,,APOC Trust Fund,AETH0194818807
9788,AFRO,Eastern Africa,Ethiopia,17,ET,ETH,Oromiya,1948,West Wellega,3194,NOLE K.,18973,Berro,35.61903,8.71089,Village,1,null,null,null,2011,2011 - 2016,,null,Mapping,Clinical,Nodule palpation,null,null,32,10,0.313,null,,null,,APOC Trust Fund,AETH0194818973
9789,AFRO,Eastern Africa,Ethiopia,17,ET,ETH,Oromiya,1948,Illu Aba bora,3155,Mako,18952,Beru,35.92447,8.66702,Village,1,null,null,null,2011,2011 - 2016,,null,Mapping,Clinical,Nodule palpation,null,null,35,12,0.343,null,,null,,APOC Trust Fund,AETH0194818952
9790,AFRO,Eastern Africa,Ethiopia,17,ET,ETH,Oromiya,1948,Jimma,3159,Setema,18998,Bicha,36.40568,8.04606,Village,1,null,null,null,2011,2011 - 2016,,null,Mapping,Clinical,Nodule palpation,null,null,35,14,0.4,null,,null,,APOC Trust Fund,AETH0194818998
9791,AFRO,Eastern Africa,Ethiopia,17,ET,ETH,Oromiya,1948,Illu Aba bora,3155,Gechi,18861,BIDO,36.420982,8.261643,Village,1,null,null,null,null,Before 2001,,null,Mapping,Clinical,Nodule palpation,null,null,31,1,0.032,null,,null,,APOC Trust Fund,AETH0194818861
9792,AFRO,Eastern Africa,Ethiopia,17,ET,ETH,Oromiya,1948,Illu Aba bora,3155,Chora,18807,Biftu,36.04112,8.39882,Village,1,null,null,null,2011,2011 - 2016,,null,Mapping,Clinical,Nodule palpation,null,null,35,6,0.171,null,,null,,APOC Trust Fund,AETH0194818807
9793,AFRO,Eastern Africa,Ethiopia,17,ET,ETH,Oromiya,1948,West Wellega,3194,L/ASSABI,18936,Bikila Mure,35.6409,9.0899,Village,1,null,null,null,2011,2011 - 2016,,null,Mapping,Clinical,Nodule palpation,null,null,34,2,0.059,null,,null,,APOC Trust Fund,AETH0194818936
9794,AFRO,Eastern Africa,Ethiopia,17,ET,ETH,Oromiya,1948,Illu Aba bora,3155,Borecha,18794,Bikilta,36.65869,8.40735,Village,1,null,null,null,2011,2011 - 2016,,null,Mapping,Clinical,Nodule palpation,null,null,33,5,0.152,null,,null,,APOC Trust Fund,AETH0194818794
9795,AFRO,Eastern Africa,Ethiopia,17,ET,ETH,Oromiya,1948,West Wellega,3194,KONDALA,18926,Bikiltu Mandase,34.69426,9.38934,Village,1,null,null,null,2011,2011 - 2016,,null,Mapping,Clinical,Nodule palpation,null,null,35,0,0,null,,null,,APOC Trust Fund,AETH0194818926
9796,AFRO,Eastern Africa,Ethiopia,17,ET,ETH,Amhara,1943,Wag Hemra,3191,Dehana,18578,BIL BALA,38.85,12.3167,Village,1,null,null,null,null,Before 2001,,null,Mapping,Clinical,Nodule palpation,null,null,50,0,0,null,,null,,APOC Trust Fund,AETH0194318578
9797,AFRO,Eastern Africa,Ethiopia,17,ET,ETH,Oromiya,1948,West Wellega,3194,B/DIRMEJI,18771,BILA,35.608812,9.283764,Village,1,null,null,null,null,Before 2001,,null,Mapping,Clinical,Nodule palpation,null,null,30,3,0.1,null,,null,,APOC Trust Fund,AETH0194818771
9798,AFRO,Eastern Africa,Ethiopia,17,ET,ETH,Oromiya,1948,Jimma,3159,Jimma Town,18923,Bildima Gode,36.83908,7.66927,Village,1,null,null,null,2011,2011 - 2016,,null,Mapping,Clinical,Nodule palpation,null,null,34,13,0.382,null,,null,,APOC Trust Fund,AETH0194818923
9799,AFRO,Eastern Africa,Ethiopia,17,ET,ETH,Oromiya,1948,E. Wellega,3146,Nunu Kumba,18980,Bilidima Dongi,36.75029,8.82848,Village,1,null,null,null,2011,2011 - 2016,,null,Mapping,Clinical,Nodule palpation,null,null,30,11,0.367,null,,null,,APOC Trust Fund,AETH0194818980
9800,AFRO,Eastern Africa,Ethiopia,17,ET,ETH,SNNP,1950,East Gurage,22001,Sodo,19251,BILITI BA,38.6333,8.1667,Village,1,null,null,null,null,Before 2001,,null,Mapping,Clinical,Nodule palpation,null,null,40,0,0,null,,null,,APOC Trust Fund,AETH0195019251
9801,AFRO,Eastern Africa,Ethiopia,17,ET,ETH,Oromiya,1948,E. Wellega,3146,Boneya Boshe,18791,BILO BOSH,36.999938,8.918372,Village,1,null,null,null,null,Before 2001,,null,Mapping,Clinical,Nodule palpation,null,null,34,0,0,null,,null,,APOC Trust Fund,AETH0194818791
9802,AFRO,Eastern Africa,Ethiopia,17,ET,ETH,Amhara,1943,N. Gonder,3171,Quara,18650,BINYANYA,35.91537,12.43977,Village,1,null,null,null,null,,,null,Phase 1b Epidemiological evaluation,Parasitological,Parasitology (Skin biopsy),null,null,80,0,0,0,,null,APOC,APOC Trust Fund,AETH0194318650
9803,AFRO,Eastern Africa,Ethiopia,17,ET,ETH,Oromiya,1948,West Wellega,3194,M/SIBU,18949,Birbirsa Garakoma,35.09759,9.62439,Village,1,null,null,null,2012,2011 - 2016,,null,Mapping,Clinical,Nodule palpation,null,null,27,8,0.296,null,,null,,APOC Trust Fund,AETH0194818949
9804,AFRO,Eastern Africa,Ethiopia,17,ET,ETH,Gambela,1946,Itang,3157,Itang,18720,BIRHANE S,34.1167,8.3833,Village,1,null,null,null,null,Before 2001,,null,Mapping,Clinical,Nodule palpation,null,null,38,1,0.026,null,,null,,APOC Trust Fund,AETH0194618720
9805,AFRO,Eastern Africa,Ethiopia,17,ET,ETH,Oromiya,1948,West Wellega,3194,NOLE K.,18973,Bisha,35.64244,8.74649,Village,1,null,null,null,2011,2011 - 2016,,null,Mapping,Clinical,Nodule palpation,null,null,33,3,0.091,null,,null,,APOC Trust Fund,AETH0194818973
9806,AFRO,Eastern Africa,Ethiopia,17,ET,ETH,Benshangul-Gumuz,1944,Metekel,3169,Dibate,18691,Bishan adi,36.2201,10.1942,Village,1,null,null,null,2012,2011 - 2016,,null,Mapping,Clinical,Nodule palpation,null,null,30,8,0.267,null,,null,,APOC Trust Fund,AETH0194418691
9807,AFRO,Eastern Africa,Ethiopia,17,ET,ETH,Oromiya,1948,E. Wellega,3146,Gida Ayana,18866,Bishan Badasa,36.58357,9.51762,Village,1,null,null,null,2011,2011 - 2016,,null,Mapping,Clinical,Nodule palpation,null,null,28,9,0.321,null,,null,,APOC Trust Fund,AETH0194818866
9808,AFRO,Eastern Africa,Ethiopia,17,ET,ETH,Oromiya,1948,E. Wellega,3146,Gida Ayana,18866,Bishan Meti,36.63102,9.6806,Village,1,null,null,null,2011,2011 - 2016,,null,Mapping,Clinical,Nodule palpation,null,null,30,10,0.333,null,,null,,APOC Trust Fund,AETH0194818866
9809,AFRO,Eastern Africa,Ethiopia,17,ET,ETH,Oromiya,1948,West Wellega,3194,L/ASSABI,18936,Bishasho/Bantu,35.60602,9.15361,Village,1,null,null,null,2012,2011 - 2016,,null,Mapping,Clinical,Nodule palpation,null,null,35,9,0.257,null,,null,,APOC Trust Fund,AETH0194818936
9810,AFRO,Eastern Africa,Ethiopia,17,ET,ETH,Oromiya,1948,E. Wellega,3146,Gudeya Bila,18883,Bobe 1ffaa,37.02515,9.2288,Village,1,null,null,null,2011,2011 - 2016,,null,Mapping,Clinical,Nodule palpation,null,null,32,5,0.156,null,,null,,APOC Trust Fund,AETH0194818883
9811,AFRO,Eastern Africa,Ethiopia,17,ET,ETH,Oromiya,1948,West Arsi,3689,Nansebo,18975,Bochessa,39.111533,6.45335,Village,1,null,null,null,2014,2011 - 2016,,null,Mapping,Parasitological,Parasitology (Skin biopsy),null,null,114,0,0,null,,null,,APOC Trust Fund,AETH0194818975
9812,AFRO,Eastern Africa,Ethiopia,17,ET,ETH,Oromiya,1948,E. Wellega,3146,Nunu Kumba,18980,Bocholo,36.7673,8.82634,Village,1,null,null,null,2011,2011 - 2016,,null,Mapping,Clinical,Nodule palpation,null,null,27,22,0.815,null,,null,,APOC Trust Fund,AETH0194818980
9813,AFRO,Eastern Africa,Ethiopia,17,ET,ETH,Oromiya,1948,West Wellega,3194,NEDJO R.,18971,BOJII JIMMA,35.51217,9.60548,Village,1,null,null,null,2012,2011 - 2016,,null,Mapping,Parasitological,Parasitology (Skin biopsy),null,null,79,0,0,null,,null,,APOC Trust Fund,AETH0194818971
9814,AFRO,Eastern Africa,Ethiopia,17,ET,ETH,Oromiya,1948,West Wellega,3194,NEDJO R.,18971,BOJII JIMMA,35.51217,9.60548,Village,1,null,null,null,2012,2011 - 2016,,null,Mapping,Clinical,Nodule palpation,null,null,79,15,0.19,null,,null,,APOC Trust Fund,AETH0194818971
9815,AFRO,Eastern Africa,Ethiopia,17,ET,ETH,Oromiya,1948,West Wellega,3194,NEDJO R.,18971,Bojji Jimma,35.5645,9.6608,Village,1,null,null,null,2011,2011 - 2016,,null,Mapping,Clinical,Nodule palpation,null,null,35,18,0.514,null,,null,,APOC Trust Fund,AETH0194818971
9816,AFRO,Eastern Africa,Ethiopia,17,ET,ETH,Oromiya,1948,Arsi,3130,H/wabe,18891,BOLE,39.5167,7.4333,Village,1,null,null,null,null,Before 2001,,null,Mapping,Clinical,Nodule palpation,null,null,40,0,0,null,,null,,APOC Trust Fund,AETH0194818891
9817,AFRO,Eastern Africa,Ethiopia,17,ET,ETH,Oromiya,1948,Jimma,3159,Limmu kossa,18947,Bolosa ( Awaye),37.08483,8.26863,Village,1,null,null,null,2011,2011 - 2016,,null,Mapping,Clinical,Nodule palpation,null,null,30,6,0.2,null,,null,,APOC Trust Fund,AETH0194818947
9818,AFRO,Eastern Africa,Ethiopia,17,ET,ETH,Gambela,1946,Agnua II,3127,Gambella,18717,BONGA,34.846068,8.180901,Village,1,null,null,null,null,Before 2001,,null,Mapping,Clinical,Nodule palpation,null,null,28,14,0.5,null,,null,,APOC Trust Fund,AETH0194618717
9819,AFRO,Eastern Africa,Ethiopia,17,ET,ETH,Oromiya,1948,Jimma,3159,Limmu Seka,18946,Bontu,37.04592,8.43691,Village,1,null,null,null,2011,2011 - 2016,,null,Mapping,Clinical,Nodule palpation,null,null,30,6,0.2,null,,null,,APOC Trust Fund,AETH0194818946
9820,AFRO,Eastern Africa,Ethiopia,17,ET,ETH,Oromiya,1948,West Wellega,3194,M/SIBU,18949,BORATA,34.94947,9.81794,Village,1,null,null,null,2012,2011 - 2016,,null,Mapping,Parasitological,Parasitology (Skin biopsy),null,null,88,0,0,null,,null,,APOC Trust Fund,AETH0194818949
9821,AFRO,Eastern Africa,Ethiopia,17,ET,ETH,Oromiya,1948,West Wellega,3194,M/SIBU,18949,BORATA,34.94947,9.81794,Village,1,null,null,null,2012,2011 - 2016,,null,Mapping,Clinical,Nodule palpation,null,null,88,0,0,null,,null,,APOC Trust Fund,AETH0194818949
9822,AFRO,Eastern Africa,Ethiopia,17,ET,ETH,Oromiya,1948,West Wellega,3194,B/Gambel,18772,Borki,35.15008,9.3623,Village,1,null,null,null,2011,2011 - 2016,,null,Mapping,Clinical,Nodule palpation,null,null,35,2,0.057,null,,null,,APOC Trust Fund,AETH0194818772
9823,AFRO,Eastern Africa,Ethiopia,17,ET,ETH,Oromiya,1948,E. Wellega,3146,Gobu Sayo,18875,Boro 2,37.03094,9.14942,Village,1,null,null,null,2011,2011 - 2016,,null,Mapping,Clinical,Nodule palpation,null,null,25,9,0.36,null,,null,,APOC Trust Fund,AETH0194818875
9824,AFRO,Eastern Africa,Ethiopia,17,ET,ETH,Oromiya,1948,W. Shewa,3190,Bako Tibe,18777,Boro 3,37.04001,9.13513,Village,1,null,null,null,2011,2011 - 2016,,null,Mapping,Clinical,Nodule palpation,null,null,36,16,0.444,null,,null,,APOC Trust Fund,AETH0194818777
9825,AFRO,Eastern Africa,Ethiopia,17,ET,ETH,Oromiya,1948,West Wellega,3194,M/SIBU,18949,Borratu,34.93713,9.83048,Village,1,null,null,null,2011,2011 - 2016,,null,Mapping,Clinical,Nodule palpation,null,null,31,9,0.29,null,,null,,APOC Trust Fund,AETH0194818949
9826,AFRO,Eastern Africa,Ethiopia,17,ET,ETH,Oromiya,1948,West Wellega,3194,HARU,18892,Bose,35.71478,8.96436,Village,1,null,null,null,2011,2011 - 2016,,null,Mapping,Clinical,Nodule palpation,null,null,35,6,0.171,null,,null,,APOC Trust Fund,AETH0194818892
9827,AFRO,Eastern Africa,Ethiopia,17,ET,ETH,Gambela,1946,Mezhenger,3170,Godere,18718,Bosho,35.32697,7.19596,Village,1,null,null,null,2011,2011 - 2016,,null,Mapping,Clinical,Nodule palpation,null,null,35,17,0.486,null,,null,,APOC Trust Fund,AETH0194618718
9828,AFRO,Eastern Africa,Ethiopia,17,ET,ETH,Oromiya,1948,E. Wellega,3146,Gudeya Bila,18883,Bosoka,37.02407,9.23129,Village,1,null,null,null,2011,2011 - 2016,,null,Mapping,Clinical,Nodule palpation,null,null,32,2,0.063,null,,null,,APOC Trust Fund,AETH0194818883
9829,AFRO,Eastern Africa,Ethiopia,17,ET,ETH,Oromiya,1948,Jimma,3159,Gera,18865,Boto,36.06263,7.60099,Village,1,null,null,null,2011,2011 - 2016,,null,Mapping,Clinical,Nodule palpation,null,null,30,8,0.267,null,,null,,APOC Trust Fund,AETH0194818865
9830,AFRO,Eastern Africa,Ethiopia,17,ET,ETH,Oromiya,1948,E. Wellega,3146,Nunu Kumba,18980,Brbrso,36.76777,8.80672,Village,1,null,null,null,2011,2011 - 2016,,null,Mapping,Clinical,Nodule palpation,null,null,29,10,0.345,null,,null,,APOC Trust Fund,AETH0194818980
9831,AFRO,Eastern Africa,Ethiopia,17,ET,ETH,Oromiya,1948,E. Wellega,3146,Nunu Kumba,18980,Bucho,36.78918,8.80208,Village,1,null,null,null,2011,2011 - 2016,,null,Mapping,Clinical,Nodule palpation,null,null,31,14,0.452,null,,null,,APOC Trust Fund,AETH0194818980
9832,AFRO,Eastern Africa,Ethiopia,17,ET,ETH,Oromiya,1948,West Wellega,3194,M/SIBU,18949,BUKO,35.108716,9.920661,Village,1,null,null,null,null,Before 2001,,null,Mapping,Clinical,Nodule palpation,null,null,35,4,0.114,null,,null,,APOC Trust Fund,AETH0194818949
9833,AFRO,Eastern Africa,Ethiopia,17,ET,ETH,SNNP,1950,Kafa,3160,Bitta,19141,BUKURI,35.6333,7.3,Village,1,null,null,null,null,Before 2001,,null,Mapping,Clinical,Nodule palpation,null,null,50,21,0.42,null,,null,,APOC Trust Fund,AETH0195019141
9834,AFRO,Eastern Africa,Ethiopia,17,ET,ETH,SNNP,1950,Sheka,3182,Yeki woreda,19272,Bukuri 2,35.60273,7.22282,Village,1,null,null,null,null,,,null,Phase 1a Epidemiological evaluation,Parasitological,Parasitology (Skin biopsy),null,null,256,5,0.02,0,,null,APOC,APOC Trust Fund,AETH0195019272
9835,AFRO,Eastern Africa,Ethiopia,17,ET,ETH,SNNP,1950,Hadiya,3153,Gibe,19187,BUKURO,37.735425,7.628309,Village,1,null,null,null,null,Before 2001,,null,Mapping,Clinical,Nodule palpation,null,null,38,0,0,null,,null,,APOC Trust Fund,AETH0195019187
9836,AFRO,Eastern Africa,Ethiopia,17,ET,ETH,Oromiya,1948,Jimma,3159,Kersa,18928,Bulbul,37.09566,7.71497,Village,1,null,null,null,2011,2011 - 2016,,null,Mapping,Clinical,Nodule palpation,null,null,31,2,0.065,null,,null,,APOC Trust Fund,AETH0194818928
9837,AFRO,Eastern Africa,Ethiopia,17,ET,ETH,Benshangul-Gumuz,1944,Metekel,3169,Bullen,18689,Bullen,36.08261,10.60073,Village,1,null,null,null,null,Before 2001,,null,Mapping,Clinical,Nodule palpation,null,null,30,2,0.067,null,,null,,APOC Trust Fund,AETH0194418689
9838,AFRO,Eastern Africa,Ethiopia,17,ET,ETH,Benshangul-Gumuz,1944,Metekel,3169,Guba,18692,BUMBADI,35.040693,11.248876,Village,1,null,null,null,null,Before 2001,,null,Mapping,Clinical,Nodule palpation,null,null,35,6,0.171,null,,null,,APOC Trust Fund,AETH0194418692
9839,AFRO,Eastern Africa,Ethiopia,17,ET,ETH,Amhara,1943,S. Gonder,3178,Libo kemkem,18630,BURA,37.7333,12.0333,Village,1,null,null,null,null,Before 2001,,null,Mapping,Clinical,Nodule palpation,null,null,35,0,0,null,,null,,APOC Trust Fund,AETH0194318630
9840,AFRO,Eastern Africa,Ethiopia,17,ET,ETH,Amhara,1943,N. Gonder,3171,Tsegede,18670,Bure,37.14973,13.24996,Village,1,null,null,null,2011,2011 - 2016,,null,Mapping,Clinical,Nodule palpation,null,null,43,2,0.047,null,,null,,APOC Trust Fund,AETH0194318670
9841,AFRO,Eastern Africa,Ethiopia,17,ET,ETH,Amhara,1943,West Gojam,3193,Bure Zuria,18560,BURE,37.075385,10.701892,Village,1,null,null,null,null,Before 2001,,null,Mapping,Clinical,Nodule palpation,null,null,48,7,0.146,null,,null,,APOC Trust Fund,AETH0194318560
9842,AFRO,Eastern Africa,Ethiopia,17,ET,ETH,Oromiya,1948,Illu Aba bora,3155,Bure,18799,BURE,35.086949,8.303776,Village,1,null,null,null,null,Before 2001,,null,Mapping,Clinical,Nodule palpation,null,null,28,2,0.071,null,,null,,APOC Trust Fund,AETH0194818799
9843,AFRO,Eastern Africa,Ethiopia,17,ET,ETH,Oromiya,1948,Illu Aba bora,3155,Chora,18807,BureKa,36.04086,8.39575,Village,1,null,null,null,2011,2011 - 2016,,null,Mapping,Clinical,Nodule palpation,null,null,30,6,0.2,null,,null,,APOC Trust Fund,AETH0194818807
9844,AFRO,Eastern Africa,Ethiopia,17,ET,ETH,Oromiya,1948,Illu Aba bora,3155,Dega,18821,Burka Dama,35.97167,8.63364,Village,1,null,null,null,2011,2011 - 2016,,null,Mapping,Clinical,Nodule palpation,null,null,35,2,0.057,null,,null,,APOC Trust Fund,AETH0194818821
9845,AFRO,Eastern Africa,Ethiopia,17,ET,ETH,Oromiya,1948,West Wellega,3194,NEDJO R.,18971,Burka Dinka 2,35.55973,9.61281,Village,1,null,null,null,2011,2011 - 2016,,null,Mapping,Clinical,Nodule palpation,null,null,35,8,0.229,null,,null,,APOC Trust Fund,AETH0194818971
9846,AFRO,Eastern Africa,Ethiopia,17,ET,ETH,Oromiya,1948,West Wellega,3194,NEDJO R.,18971,BURKA DINKA 2,35.56155,9.61592,Village,1,null,null,null,2012,2011 - 2016,,null,Mapping,Parasitological,Parasitology (Skin biopsy),null,null,136,9,0.066,null,,null,,APOC Trust Fund,AETH0194818971
9847,AFRO,Eastern Africa,Ethiopia,17,ET,ETH,Oromiya,1948,West Wellega,3194,NEDJO R.,18971,BURKA DINKA 2,35.56155,9.61592,Village,1,null,null,null,2012,2011 - 2016,,null,Mapping,Clinical,Nodule palpation,null,null,136,0,0,null,,null,,APOC Trust Fund,AETH0194818971
9848,AFRO,Eastern Africa,Ethiopia,17,ET,ETH,Oromiya,1948,West Wellega,3194,NEDJO R.,18971,Burka Dinko 1,35.56017,9.60912,Village,1,null,null,null,2011,2011 - 2016,,null,Mapping,Clinical,Nodule palpation,null,null,35,8,0.229,null,,null,,APOC Trust Fund,AETH0194818971
9849,AFRO,Eastern Africa,Ethiopia,17,ET,ETH,Oromiya,1948,Illu Aba bora,3155,Dega,18821,BurKaHori,35.98261,8.64532,Village,1,null,null,null,2011,2011 - 2016,,null,Mapping,Clinical,Nodule palpation,null,null,35,7,0.2,null,,null,,APOC Trust Fund,AETH0194818821
9850,AFRO,Eastern Africa,Ethiopia,17,ET,ETH,Oromiya,1948,West Wellega,3194,HARU,18892,Burkitu Badeso,35.7243,8.98532,Village,1,null,null,null,2011,2011 - 2016,,null,Mapping,Clinical,Nodule palpation,null,null,31,2,0.065,null,,null,,APOC Trust Fund,AETH0194818892
9851,AFRO,Eastern Africa,Ethiopia,17,ET,ETH,Oromiya,1948,Borena,3135,Dugda Dawa,18845,Burkitu megala,38.244033,5.429517,Village,1,null,null,null,2014,2011 - 2016,,null,Mapping,Parasitological,Parasitology (Skin biopsy),null,null,105,0,0,null,,null,,APOC Trust Fund,AETH0194818845
9852,AFRO,Eastern Africa,Ethiopia,17,ET,ETH,SNNP,1950,East Gurage,22001,Meskan,19231,Butajira,38.37438,8.11148,Village,1,null,null,null,null,Before 2001,,null,Mapping,Clinical,Nodule palpation,null,null,32,0,0,null,,null,,APOC Trust Fund,AETH0195019231
9853,AFRO,Eastern Africa,Ethiopia,17,ET,ETH,Oromiya,1948,Jimma,3159,Omo Nada,18983,Café,37.0657,7.54575,Village,1,null,null,null,2011,2011 - 2016,,null,Mapping,Clinical,Nodule palpation,null,null,35,1,0.029,null,,null,,APOC Trust Fund,AETH0194818983
9854,AFRO,Eastern Africa,Ethiopia,17,ET,ETH,Oromiya,1948,West Wellega,3194,HARU,18892,Calliya,35.75896,9.0207,Village,1,null,null,null,2011,2011 - 2016,,null,Mapping,Clinical,Nodule palpation,null,null,35,9,0.257,null,,null,,APOC Trust Fund,AETH0194818892
9855,AFRO,Eastern Africa,Ethiopia,17,ET,ETH,Oromiya,1948,West Wellega,3194,B/DIRMEJI,18771,Cancho,35.76115,9.45685,Village,1,null,null,null,2011,2011 - 2016,,null,Mapping,Clinical,Nodule palpation,null,null,34,10,0.294,null,,null,,APOC Trust Fund,AETH0194818771
9856,AFRO,Eastern Africa,Ethiopia,17,ET,ETH,Oromiya,1948,Jimma,3159,Gera,18865,Ceriko,36.04597,7.59172,Village,1,null,null,null,2011,2011 - 2016,,null,Mapping,Clinical,Nodule palpation,null,null,30,13,0.433,null,,null,,APOC Trust Fund,AETH0194818865
9857,AFRO,Eastern Africa,Ethiopia,17,ET,ETH,Oromiya,1948,West Wellega,3194,KONDALA,18926,Chaba,34.72661,9.35058,Village,1,null,null,null,2011,2011 - 2016,,null,Mapping,Clinical,Nodule palpation,null,null,35,0,0,null,,null,,APOC Trust Fund,AETH0194818926
9858,AFRO,Eastern Africa,Ethiopia,17,ET,ETH,Benshangul-Gumuz,1944,Kamashi,3161,Kamashi,18694,Chabe,35.80149,9.58944,Village,1,null,null,null,null,Before 2001,,null,Mapping,Clinical,Nodule palpation,null,null,30,0,0,null,,null,,APOC Trust Fund,AETH0194418694
9859,AFRO,Eastern Africa,Ethiopia,17,ET,ETH,Oromiya,1948,E. Wellega,3146,Gida Ayana,18866,Chafe gupena,36.63114,9.67982,Village,1,null,null,null,2011,2011 - 2016,,null,Mapping,Clinical,Nodule palpation,null,null,30,4,0.133,null,,null,,APOC Trust Fund,AETH0194818866
9860,AFRO,Eastern Africa,Ethiopia,17,ET,ETH,Amhara,1943,Awi,3126,Guangua,18607,CHAGNI,36.516702,10.958746,Village,1,null,null,null,null,Before 2001,,null,Mapping,Clinical,Nodule palpation,null,null,30,1,0.033,null,,null,,APOC Trust Fund,AETH0194318607
9861,AFRO,Eastern Africa,Ethiopia,17,ET,ETH,Oromiya,1948,Illu Aba bora,3155,Dega,18821,Chala Gudistu,35.99371,8.66365,Village,1,null,null,null,2011,2011 - 2016,,null,Mapping,Clinical,Nodule palpation,null,null,32,5,0.156,null,,null,,APOC Trust Fund,AETH0194818821
9862,AFRO,Eastern Africa,Ethiopia,17,ET,ETH,Oromiya,1948,W. Shewa,3190,Dano,18814,CHALLO,37.25,8.7833,Village,1,null,null,null,null,Before 2001,,null,Mapping,Clinical,Nodule palpation,null,null,40,0,0,null,,null,,APOC Trust Fund,AETH0194818814
9863,AFRO,Eastern Africa,Ethiopia,17,ET,ETH,Oromiya,1948,W. Shewa,3190,Jibat,18917,Chaloo,37.39228,8.82604,Village,1,null,null,null,2011,2011 - 2016,,null,Mapping,Clinical,Nodule palpation,null,null,33,7,0.212,null,,null,,APOC Trust Fund,AETH0194818917
9864,AFRO,Eastern Africa,Ethiopia,17,ET,ETH,Oromiya,1948,W. Shewa,3190,Jibat,18917,CHALOO,37.39244,8.8267,Village,1,null,null,null,2012,2011 - 2016,,null,Mapping,Parasitological,Parasitology (Skin biopsy),null,null,91,19,0.209,null,,null,,APOC Trust Fund,AETH0194818917
9865,AFRO,Eastern Africa,Ethiopia,17,ET,ETH,Oromiya,1948,W. Shewa,3190,Jibat,18917,CHALOO,37.39244,8.8267,Village,1,null,null,null,2012,2011 - 2016,,null,Mapping,Clinical,Nodule palpation,null,null,91,2,0.022,null,,null,,APOC Trust Fund,AETH0194818917
9866,AFRO,Eastern Africa,Ethiopia,17,ET,ETH,Oromiya,1948,Horo Guduru,16644,Abe Dongoro,18741,CHANCHO,36.71153,9.64265,Village,1,null,null,null,2012,2011 - 2016,,null,Mapping,Parasitological,Parasitology (Skin biopsy),null,null,134,0,0,null,,null,,APOC Trust Fund,AETH0194818741
9867,AFRO,Eastern Africa,Ethiopia,17,ET,ETH,Oromiya,1948,Horo Guduru,16644,Abe Dongoro,18741,CHANCHO,36.71153,9.64265,Village,1,null,null,null,2012,2011 - 2016,,null,Mapping,Clinical,Nodule palpation,null,null,134,0,0,null,,null,,APOC Trust Fund,AETH0194818741
9868,AFRO,Eastern Africa,Ethiopia,17,ET,ETH,Oromiya,1948,Kelem Wellega,3164,Dalle Wabera,18812,CHANKA,35.050116,8.816703,Village,1,null,null,null,null,Before 2001,,null,Mapping,Clinical,Nodule palpation,null,null,33,22,0.667,null,,null,,APOC Trust Fund,AETH0194818812
9869,AFRO,Eastern Africa,Ethiopia,17,ET,ETH,Oromiya,1948,Illu Aba bora,3155,Bedele Rural,18781,Chara,36.52761,8.4274,Village,1,null,null,null,2011,2011 - 2016,,null,Mapping,Clinical,Nodule palpation,null,null,30,5,0.167,null,,null,,APOC Trust Fund,AETH0194818781
9870,AFRO,Eastern Africa,Ethiopia,17,ET,ETH,Oromiya,1948,S.W. Shewa,3181,KERSANA MALIMA,18925,CHARI,38.55,8.7,Village,1,null,null,null,null,Before 2001,,null,Mapping,Clinical,Nodule palpation,null,null,40,0,0,null,,null,,APOC Trust Fund,AETH0194818925
9871,AFRO,Eastern Africa,Ethiopia,17,ET,ETH,Oromiya,1948,Jimma,3159,Tiro Afeta,19019,Chari 1,37.19986,7.93952,Village,1,null,null,null,2011,2011 - 2016,,null,Mapping,Clinical,Nodule palpation,null,null,30,1,0.033,null,,null,,APOC Trust Fund,AETH0194819019
9872,AFRO,Eastern Africa,Ethiopia,17,ET,ETH,SNNP,1950,Dawro,3138,Konta,19214,Chebera,36.67427,7.03547,Village,1,null,null,null,2014,2011 - 2016,,null,Mapping,Parasitological,Parasitology (Skin biopsy),null,null,288,37,0.128,null,,null,,APOC Trust Fund,AETH0195019214
9873,AFRO,Eastern Africa,Ethiopia,17,ET,ETH,SNNP,1950,Sidama,3184,Boricha,19144,CHEBICHA,38.2167,6.8833,Village,1,null,null,null,null,Before 2001,,null,Mapping,Clinical,Nodule palpation,null,null,30,5,0.167,null,,null,,APOC Trust Fund,AETH0195019144
9874,AFRO,Eastern Africa,Ethiopia,17,ET,ETH,Oromiya,1948,Jimma,3159,Limmu Seka,18946,Chefe,36.87726,8.40442,Village,1,null,null,null,2011,2011 - 2016,,null,Mapping,Clinical,Nodule palpation,null,null,30,8,0.267,null,,null,,APOC Trust Fund,AETH0194818946
9875,AFRO,Eastern Africa,Ethiopia,17,ET,ETH,Amhara,1943,E. Gojam,3142,Gozamin,18605,CHEMOGA,37.752201,10.335221,Village,1,null,null,null,null,Before 2001,,null,Mapping,Clinical,Nodule palpation,null,null,31,0,0,null,,null,,APOC Trust Fund,AETH0194318605
9876,AFRO,Eastern Africa,Ethiopia,17,ET,ETH,Amhara,1943,E. Gojam,3142,Aneded,18538,Chemza,37.95588,10.1656,Village,1,null,null,null,2014,2011 - 2016,,null,Mapping,Parasitological,Parasitology (Skin biopsy),null,null,103,0,0,null,,null,,APOC Trust Fund,AETH0194318538
9877,AFRO,Eastern Africa,Ethiopia,17,ET,ETH,Oromiya,1948,Illu Aba bora,3155,Dega,18821,Chencho,36.16404,8.59302,Village,1,null,null,null,2011,2011 - 2016,,null,Mapping,Clinical,Nodule palpation,null,null,34,9,0.265,null,,null,,APOC Trust Fund,AETH0194818821
9878,AFRO,Eastern Africa,Ethiopia,17,ET,ETH,Amhara,1943,N. Gonder,3171,Chilga,18562,CHERBRA,36.868581,12.708857,Village,1,null,null,null,null,Before 2001,,null,Mapping,Clinical,Nodule palpation,null,null,39,3,0.077,null,,null,,APOC Trust Fund,AETH0194318562
9879,AFRO,Eastern Africa,Ethiopia,17,ET,ETH,Oromiya,1948,Jimma,3159,Tiro Afeta,19019,Cherema,37.23444,7.83654,Village,1,null,null,null,2011,2011 - 2016,,null,Mapping,Clinical,Nodule palpation,null,null,34,3,0.088,null,,null,,APOC Trust Fund,AETH0194819019
9880,AFRO,Eastern Africa,Ethiopia,17,ET,ETH,SNNP,1950,Kafa,3160,Adiyo,19230,Chilla,36.59861,7.12824,Village,1,null,null,null,2012,2011 - 2016,,null,Mapping,Clinical,Nodule palpation,null,null,50,8,0.16,null,,null,,APOC Trust Fund,AETH0195019230
9881,AFRO,Eastern Africa,Ethiopia,17,ET,ETH,Amhara,1943,N. Gonder,3171,Alefa,18535,Chima,36.69004,12.12973,Village,1,null,null,null,2011,2011 - 2016,,null,Mapping,Clinical,Nodule palpation,null,null,35,0,0,null,,null,,APOC Trust Fund,AETH0194318535
9882,AFRO,Eastern Africa,Ethiopia,17,ET,ETH,Amhara,1943,S. Gonder,3178,Dera,18583,CHIMBEL,37.627088,11.752042,Village,1,null,null,null,null,Before 2001,,null,Mapping,Clinical,Nodule palpation,null,null,30,0,0,null,,null,,APOC Trust Fund,AETH0194318583
9883,AFRO,Eastern Africa,Ethiopia,17,ET,ETH,Oromiya,1948,Jimma,3159,Gera,18865,CHIRA,36.282721,7.768542,Village,1,null,null,null,null,Before 2001,,null,Mapping,Clinical,Nodule palpation,null,null,31,1,0.032,null,,null,,APOC Trust Fund,AETH0194818865
9884,AFRO,Eastern Africa,Ethiopia,17,ET,ETH,SNNP,1950,Kafa,3160,Gimbo,19188,CHOBA,36.3667,7.4167,Village,1,null,null,null,null,Before 2001,,null,Mapping,Clinical,Nodule palpation,null,null,46,16,0.348,null,,null,,APOC Trust Fund,AETH0195019188
9885,AFRO,Eastern Africa,Ethiopia,17,ET,ETH,SNNP,1950,Kafa,3160,Gimbo,19188,Choba Bloc 9,36.44162,7.40731,Village,1,null,null,null,null,,,null,Phase 1a Epidemiological evaluation,Parasitological,Parasitology (Skin biopsy),null,null,108,0,0,0,,null,APOC,APOC Trust Fund,AETH0195019188
9886,AFRO,Eastern Africa,Ethiopia,17,ET,ETH,Oromiya,1948,E. Wellega,3146,Gobu Sayo,18875,Chokorsa 2nd,37.01108,9.02707,Village,1,null,null,null,2011,2011 - 2016,,null,Mapping,Clinical,Nodule palpation,null,null,33,8,0.242,null,,null,,APOC Trust Fund,AETH0194818875
9887,AFRO,Eastern Africa,Ethiopia,17,ET,ETH,Oromiya,1948,W. Shewa,3190,Dano,18814,Choree,37.23293,8.78035,Village,1,null,null,null,2011,2011 - 2016,,null,Mapping,Clinical,Nodule palpation,null,null,32,2,0.063,null,,null,,APOC Trust Fund,AETH0194818814
9888,AFRO,Eastern Africa,Ethiopia,17,ET,ETH,Oromiya,1948,Illu Aba bora,3155,Dega,18821,CHOROKO,36.1833,8.6,Village,1,null,null,null,null,Before 2001,,null,Mapping,Clinical,Nodule palpation,null,null,45,1,0.022,null,,null,,APOC Trust Fund,AETH0194818821
9889,AFRO,Eastern Africa,Ethiopia,17,ET,ETH,Oromiya,1948,West Wellega,3194,GENJI,18852,Cisa,35.5724,8.9723,Village,1,null,null,null,2011,2011 - 2016,,null,Mapping,Clinical,Nodule palpation,null,null,33,0,0,null,,null,,APOC Trust Fund,AETH0194818852
9890,AFRO,Eastern Africa,Ethiopia,17,ET,ETH,Oromiya,1948,West Wellega,3194,L/ASSABI,18936,Cori,35.56888,9.12052,Village,1,null,null,null,2011,2011 - 2016,,null,Mapping,Clinical,Nodule palpation,null,null,35,2,0.057,null,,null,,APOC Trust Fund,AETH0194818936
9891,AFRO,Eastern Africa,Ethiopia,17,ET,ETH,Oromiya,1948,Borena,3135,Dire,18837,Corora,38.222083,3.8938,Village,2,null,null,null,2014,2011 - 2016,,null,Mapping,Parasitological,Parasitology (Skin biopsy),null,null,11,0,0,null,,null,,APOC Trust Fund,AETH0194818837
9892,AFRO,Eastern Africa,Ethiopia,17,ET,ETH,Oromiya,1948,West Wellega,3194,M/SIBU,18949,Culusa,34.95135,9.8257,Village,1,null,null,null,2011,2011 - 2016,,null,Mapping,Clinical,Nodule palpation,null,null,35,7,0.2,null,,null,,APOC Trust Fund,AETH0194818949
9893,AFRO,Eastern Africa,Ethiopia,17,ET,ETH,SNNP,1950,Dawro,3138,Loma,19218,DABA WARA,36.95,6.7333,Village,1,null,null,null,null,Before 2001,,null,Mapping,Clinical,Nodule palpation,null,null,50,9,0.18,null,,null,,APOC Trust Fund,AETH0195019218
9894,AFRO,Eastern Africa,Ethiopia,17,ET,ETH,Oromiya,1948,West Wellega,3194,M/SIBU,18949,Dabesa,34.91522,9.83583,Village,1,null,null,null,2011,2011 - 2016,,null,Mapping,Clinical,Nodule palpation,null,null,35,5,0.143,null,,null,,APOC Trust Fund,AETH0194818949
9895,AFRO,Eastern Africa,Ethiopia,17,ET,ETH,SNNP,1950,Sidama,3184,Shebedino,19247,Dadicho,38.4694,6.85368,Village,1,null,null,null,2014,2011 - 2016,,null,Mapping,Parasitological,Parasitology (Skin biopsy),null,null,162,0,0,null,,null,,APOC Trust Fund,AETH0195019247
9896,AFRO,Eastern Africa,Ethiopia,17,ET,ETH,Oromiya,1948,West Wellega,3194,M/SIBU,18949,Daga Idooroo,34.96472,9.86069,Village,1,null,null,null,2011,2011 - 2016,,null,Mapping,Clinical,Nodule palpation,null,null,35,2,0.057,null,,null,,APOC Trust Fund,AETH0194818949
9897,AFRO,Eastern Africa,Ethiopia,17,ET,ETH,Oromiya,1948,Illu Aba bora,3155,Bedele Rural,18781,Dagoye,36.52875,8.42897,Village,1,null,null,null,2011,2011 - 2016,,null,Mapping,Clinical,Nodule palpation,null,null,30,5,0.167,null,,null,,APOC Trust Fund,AETH0194818781
9898,AFRO,Eastern Africa,Ethiopia,17,ET,ETH,Oromiya,1948,Jimma,3159,Gumay,18885,Dajo,36.4767,7.95976,Village,1,null,null,null,2011,2011 - 2016,,null,Mapping,Clinical,Nodule palpation,null,null,33,0,0,null,,null,,APOC Trust Fund,AETH0194818885
9899,AFRO,Eastern Africa,Ethiopia,17,ET,ETH,SNNP,1950,Wolayita,3195,DAMOTGALE,19155,DALBO,37.794976,6.954283,Village,1,null,null,null,null,Before 2001,,null,Mapping,Clinical,Nodule palpation,null,null,31,0,0,null,,null,,APOC Trust Fund,AETH0195019155
9900,AFRO,Eastern Africa,Ethiopia,17,ET,ETH,Oromiya,1948,West Wellega,3194,NOLE K.,18973,Dalle,35.52532,8.74853,Village,1,null,null,null,2011,2011 - 2016,,null,Mapping,Clinical,Nodule palpation,null,null,35,21,0.6,null,,null,,APOC Trust Fund,AETH0194818973
9901,AFRO,Eastern Africa,Ethiopia,17,ET,ETH,Oromiya,1948,West Wellega,3194,NOLE K.,18973,Danbil,35.6217,8.71383,Village,1,null,null,null,2011,2011 - 2016,,null,Mapping,Clinical,Nodule palpation,null,null,32,16,0.5,null,,null,,APOC Trust Fund,AETH0194818973
9902,AFRO,Eastern Africa,Ethiopia,17,ET,ETH,Oromiya,1948,E. Wellega,3146,Gudeya Bila,18883,Danfa Bobe,37.02469,9.23571,Village,1,null,null,null,2011,2011 - 2016,,null,Mapping,Clinical,Nodule palpation,null,null,31,2,0.065,null,,null,,APOC Trust Fund,AETH0194818883
9903,AFRO,Eastern Africa,Ethiopia,17,ET,ETH,Oromiya,1948,Jimma,3159,Limmu kossa,18947,Dange (caraqi),37.02698,8.21398,Village,1,null,null,null,2011,2011 - 2016,,null,Mapping,Clinical,Nodule palpation,null,null,31,8,0.258,null,,null,,APOC Trust Fund,AETH0194818947
9904,AFRO,Eastern Africa,Ethiopia,17,ET,ETH,Amhara,1943,Awi,3126,Dangila,18567,DANGILA,36.875604,11.266554,Village,1,null,null,null,null,Before 2001,,null,Mapping,Clinical,Nodule palpation,null,null,38,2,0.053,null,,null,,APOC Trust Fund,AETH0194318567
9905,AFRO,Eastern Africa,Ethiopia,17,ET,ETH,Benshangul-Gumuz,1944,Metekel,3169,Dangure,18690,DANGUR,36.103928,11.309388,Village,1,null,null,null,null,Before 2001,,null,Mapping,Clinical,Nodule palpation,null,null,38,8,0.211,null,,null,,APOC Trust Fund,AETH0194418690
9906,AFRO,Eastern Africa,Ethiopia,17,ET,ETH,Oromiya,1948,Jimma,3159,Gomma,18878,Dansa,36.6378,7.82845,Village,1,null,null,null,2011,2011 - 2016,,null,Mapping,Clinical,Nodule palpation,null,null,40,16,0.4,null,,null,,APOC Trust Fund,AETH0194818878
9907,AFRO,Eastern Africa,Ethiopia,17,ET,ETH,Oromiya,1948,West Wellega,3194,HARU,18892,Danu,35.77711,8.98447,Village,1,null,null,null,2011,2011 - 2016,,null,Mapping,Clinical,Nodule palpation,null,null,35,10,0.286,null,,null,,APOC Trust Fund,AETH0194818892
9908,AFRO,Eastern Africa,Ethiopia,17,ET,ETH,Oromiya,1948,West Wellega,3194,NOLE K.,18973,Darare,35.54246,8.73234,Village,1,null,null,null,2011,2011 - 2016,,null,Mapping,Clinical,Nodule palpation,null,null,35,12,0.343,null,,null,,APOC Trust Fund,AETH0194818973
9909,AFRO,Eastern Africa,Ethiopia,17,ET,ETH,Oromiya,1948,W. Shewa,3190,Mida kegn,18964,Daso (Dere),37.62419,9.05993,Village,1,null,null,null,2012,2011 - 2016,,null,Mapping,Clinical,Nodule palpation,null,null,30,0,0,null,,null,,APOC Trust Fund,AETH0194818964
9910,AFRO,Eastern Africa,Ethiopia,17,ET,ETH,Oromiya,1948,Guji,3151,Odo Shakkiso,18982,DAWA DIGA,38.7333,5.4167,Village,1,null,null,null,null,Before 2001,,null,Mapping,Clinical,Nodule palpation,null,null,40,0,0,null,,null,,APOC Trust Fund,AETH0194818982
9911,AFRO,Eastern Africa,Ethiopia,17,ET,ETH,Oromiya,1948,West Wellega,3194,NOLE K.,18973,Dawwo,35.53874,8.73488,Village,1,null,null,null,2011,2011 - 2016,,null,Mapping,Clinical,Nodule palpation,null,null,35,14,0.4,null,,null,,APOC Trust Fund,AETH0194818973
9912,AFRO,Eastern Africa,Ethiopia,17,ET,ETH,Oromiya,1948,Illu Aba bora,3155,Nono Sale,18979,Daye,35.20168,7.99946,Village,1,null,null,null,2011,2011 - 2016,,null,Mapping,Clinical,Nodule palpation,null,null,35,14,0.4,null,,null,,APOC Trust Fund,AETH0194818979
9913,AFRO,Eastern Africa,Ethiopia,17,ET,ETH,SNNP,1950,Sheka,3182,Yeki woreda,19272,Daye,35.38601,7.2573,Village,1,null,null,null,null,,,null,Phase 1a Epidemiological evaluation,Parasitological,Parasitology (Skin biopsy),null,null,156,1,0.006,0,,null,APOC,APOC Trust Fund,AETH0195019272
9914,AFRO,Eastern Africa,Ethiopia,17,ET,ETH,Oromiya,1948,West Wellega,3194,B/Gambel,18772,DEBEKA,35.187276,9.301611,Village,1,null,null,null,null,Before 2001,,null,Mapping,Clinical,Nodule palpation,null,null,32,0,0,null,,null,,APOC Trust Fund,AETH0194818772
9915,AFRO,Eastern Africa,Ethiopia,17,ET,ETH,Amhara,1943,S. Gonder,3178,Lay gaint,18628,DEBIL TEK,38.5167,12.0333,Village,1,null,null,null,null,Before 2001,,null,Mapping,Clinical,Nodule palpation,null,null,50,0,0,null,,null,,APOC Trust Fund,AETH0194318628
9916,AFRO,Eastern Africa,Ethiopia,17,ET,ETH,Amhara,1943,West Gojam,3193,Jabi tehinan,18613,Debola,37.17142,10.70403,Village,1,null,null,null,2014,2011 - 2016,,null,Mapping,Parasitological,Parasitology (Skin biopsy),null,null,240,0,0,null,,null,,APOC Trust Fund,AETH0194318613
9917,AFRO,Eastern Africa,Ethiopia,17,ET,ETH,Oromiya,1948,Illu Aba bora,3155,Metu Rural,18961,Degago,35.29527,8.2935,Village,1,null,null,null,2011,2011 - 2016,,null,Mapping,Clinical,Nodule palpation,null,null,31,14,0.452,null,,null,,APOC Trust Fund,AETH0194818961
9918,AFRO,Eastern Africa,Ethiopia,17,ET,ETH,Benshangul-Gumuz,1944,Kamashi,3161,Kamashi,18694,Deguba Be,35.83255,9.45738,Village,1,null,null,null,null,Before 2001,,null,Mapping,Clinical,Nodule palpation,null,null,30,3,0.1,null,,null,,APOC Trust Fund,AETH0194418694
9919,AFRO,Eastern Africa,Ethiopia,17,ET,ETH,Amhara,1943,Awi,3126,Jawi,18616,Dehana,36.337217,11.8633,Village,1,null,null,null,2012,2011 - 2016,,null,Mapping,Clinical,Nodule palpation,null,null,36,11,0.306,null,,null,,APOC Trust Fund,AETH0194318616
9920,AFRO,Eastern Africa,Ethiopia,17,ET,ETH,Oromiya,1948,E. Wellega,3146,Limu,18948,Dekadera,36.41887,9.72568,Village,1,null,null,null,2012,2011 - 2016,,null,Mapping,Clinical,Nodule palpation,null,null,30,8,0.267,null,,null,,APOC Trust Fund,AETH0194818948
9921,AFRO,Eastern Africa,Ethiopia,17,ET,ETH,SNNP,1950,South Omo,3186,BASKETO,19131,DELASA,36.6667,6.3167,Village,1,null,null,null,null,Before 2001,,null,Mapping,Clinical,Nodule palpation,null,null,30,12,0.4,null,,null,,APOC Trust Fund,AETH0195019131
9922,AFRO,Eastern Africa,Ethiopia,17,ET,ETH,SNNP,1950,Bench Maji,3134,Guraferda,19192,Dembi,35.37061,6.95943,Village,1,null,null,null,null,,,null,Phase 1a Epidemiological evaluation,Parasitological,Parasitology (Skin biopsy),null,null,330,30,0.091,0.306576033,,null,APOC,APOC Trust Fund,AETH0195019192
9923,AFRO,Eastern Africa,Ethiopia,17,ET,ETH,Oromiya,1948,Illu Aba bora,3155,Didesa,18830,DEMBI,36.451908,8.085211,Village,1,null,null,null,null,Before 2001,,null,Mapping,Clinical,Nodule palpation,null,null,31,2,0.065,null,,null,,APOC Trust Fund,AETH0194818830
9924,AFRO,Eastern Africa,Ethiopia,17,ET,ETH,Oromiya,1948,Kelem Wellega,3164,Seyyo,19000,DEMBIDOLO,34.791682,8.520433,Village,1,null,null,null,null,Before 2001,,null,Mapping,Clinical,Nodule palpation,null,null,30,8,0.267,null,,null,,APOC Trust Fund,AETH0194819000
9925,AFRO,Eastern Africa,Ethiopia,17,ET,ETH,SNNP,1950,Dawro,3138,Essera,19178,DENGA WEY,37,6.85,Village,1,null,null,null,null,Before 2001,,null,Mapping,Clinical,Nodule palpation,null,null,30,4,0.133,null,,null,,APOC Trust Fund,AETH0195019178
9926,AFRO,Eastern Africa,Ethiopia,17,ET,ETH,Oromiya,1948,Illu Aba bora,3155,Didesa,18830,Denkuna,36.50334,8.08872,Village,1,null,null,null,2011,2011 - 2016,,null,Mapping,Clinical,Nodule palpation,null,null,32,0,0,null,,null,,APOC Trust Fund,AETH0194818830
9927,AFRO,Eastern Africa,Ethiopia,17,ET,ETH,Oromiya,1948,Illu Aba bora,3155,Nono Sale,18979,Derba,35.36839,7.9017,Village,1,null,null,null,2011,2011 - 2016,,null,Mapping,Clinical,Nodule palpation,null,null,34,14,0.412,null,,null,,APOC Trust Fund,AETH0194818979
9928,AFRO,Eastern Africa,Ethiopia,17,ET,ETH,Gambela,1946,Itang,3157,Itang,18720,Derung,34.10291,8.31013,Village,1,null,null,null,2012,2011 - 2016,,null,Mapping,Clinical,Nodule palpation,null,null,50,3,0.06,null,,null,,APOC Trust Fund,AETH0194618720
9929,AFRO,Eastern Africa,Ethiopia,17,ET,ETH,SNNP,1950,Gamo Gofa,3148,BONEKE,19135,Deshkele,37.28422,5.9635,Village,1,null,null,null,2014,2011 - 2016,,null,Mapping,Parasitological,Parasitology (Skin biopsy),null,null,126,0,0,null,,null,,APOC Trust Fund,AETH0195019135
9930,AFRO,Eastern Africa,Ethiopia,17,ET,ETH,Oromiya,1948,West Wellega,3194,B/DIRMEJI,18771,Dhadamsa,35.74819,9.43885,Village,1,null,null,null,2011,2011 - 2016,,null,Mapping,Clinical,Nodule palpation,null,null,32,18,0.563,null,,null,,APOC Trust Fund,AETH0194818771
9931,AFRO,Eastern Africa,Ethiopia,17,ET,ETH,Oromiya,1948,West Wellega,3194,NEDJO R.,18971,Didisi,35.42885,9.3513,Village,1,null,null,null,2012,2011 - 2016,,null,Mapping,Clinical,Nodule palpation,null,null,66,27,0.409,null,,null,,APOC Trust Fund,AETH0194818971
9932,AFRO,Eastern Africa,Ethiopia,17,ET,ETH,Oromiya,1948,West Wellega,3194,NOLE K.,18973,Digai,35.60985,8.74245,Village,1,null,null,null,2011,2011 - 2016,,null,Mapping,Clinical,Nodule palpation,null,null,35,7,0.2,null,,null,,APOC Trust Fund,AETH0194818973
9933,AFRO,Eastern Africa,Ethiopia,17,ET,ETH,Oromiya,1948,West Wellega,3194,NOLE K.,18973,Dilgasa,35.66782,8.75569,Village,1,null,null,null,2011,2011 - 2016,,null,Mapping,Clinical,Nodule palpation,null,null,33,11,0.333,null,,null,,APOC Trust Fund,AETH0194818973
9934,AFRO,Eastern Africa,Ethiopia,17,ET,ETH,Benshangul-Gumuz,1944,Kamashi,3161,Yaso,18704,Dilidil,35.95969,9.96394,Village,1,null,null,null,2012,2011 - 2016,,null,Mapping,Clinical,Nodule palpation,null,null,50,34,0.68,null,,null,,APOC Trust Fund,AETH0194418704
9935,AFRO,Eastern Africa,Ethiopia,17,ET,ETH,Amhara,1943,N. Gonder,3171,Takusa,18666,Dimble Agesa,36.80355,12.12501,Village,1,null,null,null,2011,2011 - 2016,,null,Mapping,Clinical,Nodule palpation,null,null,36,0,0,null,,null,,APOC Trust Fund,AETH0194318666
9936,AFRO,Eastern Africa,Ethiopia,17,ET,ETH,Oromiya,1948,Jimma,3159,Tiro Afeta,19019,Dimtu,37.24211,8.02616,Village,1,null,null,null,null,Before 2001,,null,Mapping,Clinical,Nodule palpation,null,null,30,3,0.1,null,,null,,APOC Trust Fund,AETH0194819019
9937,AFRO,Eastern Africa,Ethiopia,17,ET,ETH,Oromiya,1948,West Wellega,3194,L/ASSABI,18936,Dingo,35.64232,9.08286,Village,1,null,null,null,2011,2011 - 2016,,null,Mapping,Clinical,Nodule palpation,null,null,35,3,0.086,null,,null,,APOC Trust Fund,AETH0194818936
9938,AFRO,Eastern Africa,Ethiopia,17,ET,ETH,SNNP,1950,Hadiya,3153,Soro,19252,DINKORE,37.4833,7.5,Village,1,null,null,null,null,Before 2001,,null,Mapping,Clinical,Nodule palpation,null,null,35,4,0.114,null,,null,,APOC Trust Fund,AETH0195019252
9939,AFRO,Eastern Africa,Ethiopia,17,ET,ETH,SNNP,1950,Sidama,3184,Aleta chuko,19124,Dinto,38.23743,6.48504,Village,1,null,null,null,2014,2011 - 2016,,null,Mapping,Parasitological,Parasitology (Skin biopsy),null,null,78,0,0,null,,null,,APOC Trust Fund,AETH0195019124
9940,AFRO,Eastern Africa,Ethiopia,17,ET,ETH,Oromiya,1948,Jimma,3159,Sokoru,19012,Dire,37.31999,7.75847,Village,1,null,null,null,2011,2011 - 2016,,null,Mapping,Clinical,Nodule palpation,null,null,32,4,0.125,null,,null,,APOC Trust Fund,AETH0194819012
9941,AFRO,Eastern Africa,Ethiopia,17,ET,ETH,Oromiya,1948,Illu Aba bora,3155,Nono Sale,18979,Dogo,35.33249,7.88277,Village,1,null,null,null,2011,2011 - 2016,,null,Mapping,Clinical,Nodule palpation,null,null,35,13,0.371,null,,null,,APOC Trust Fund,AETH0194818979
9942,AFRO,Eastern Africa,Ethiopia,17,ET,ETH,Oromiya,1948,Jimma,3159,Tiro Afeta,19019,Dogoso,37.20718,7.80586,Village,1,null,null,null,2011,2011 - 2016,,null,Mapping,Clinical,Nodule palpation,null,null,34,5,0.147,null,,null,,APOC Trust Fund,AETH0194819019
9943,AFRO,Eastern Africa,Ethiopia,17,ET,ETH,Oromiya,1948,Jimma,3159,Omo Nada,18983,Dora,37.20319,7.78953,Village,1,null,null,null,2011,2011 - 2016,,null,Mapping,Clinical,Nodule palpation,null,null,30,2,0.067,null,,null,,APOC Trust Fund,AETH0194818983
9944,AFRO,Eastern Africa,Ethiopia,17,ET,ETH,Oromiya,1948,Jimma,3159,Limmu Seka,18946,DORA GABE,36.85,8.15,Village,1,null,null,null,null,Before 2001,,null,Mapping,Clinical,Nodule palpation,null,null,33,0,0,null,,null,,APOC Trust Fund,AETH0194818946
9945,AFRO,Eastern Africa,Ethiopia,17,ET,ETH,Oromiya,1948,E. Wellega,3146,Gida Ayana,18866,DORO WAYU,36.645264,9.838278,Village,1,null,null,null,null,Before 2001,,null,Mapping,Clinical,Nodule palpation,null,null,31,5,0.161,null,,null,,APOC Trust Fund,AETH0194818866
9946,AFRO,Eastern Africa,Ethiopia,17,ET,ETH,Oromiya,1948,Jimma,3159,Limmu kossa,18947,Dorra Geb,36.92302,8.10332,Village,1,null,null,null,null,Before 2001,,null,Mapping,Clinical,Nodule palpation,null,null,30,2,0.067,null,,null,,APOC Trust Fund,AETH0194818947
9947,AFRO,Eastern Africa,Ethiopia,17,ET,ETH,Oromiya,1948,E. Wellega,3146,Diga,18832,DTOLLE,36.455949,9.035227,Village,1,null,null,null,null,Before 2001,,null,Mapping,Clinical,Nodule palpation,null,null,33,16,0.485,null,,null,,APOC Trust Fund,AETH0194818832
9948,AFRO,Eastern Africa,Ethiopia,17,ET,ETH,Oromiya,1948,West Wellega,3194,NEDJO R.,18971,Dukkoo,35.56769,9.65384,Village,1,null,null,null,2011,2011 - 2016,,null,Mapping,Clinical,Nodule palpation,null,null,35,16,0.457,null,,null,,APOC Trust Fund,AETH0194818971
9949,AFRO,Eastern Africa,Ethiopia,17,ET,ETH,Oromiya,1948,Illu Aba bora,3155,Darimu,18815,DUPA,35.325395,8.536159,Village,1,null,null,null,null,Before 2001,,null,Mapping,Clinical,Nodule palpation,null,null,32,23,0.719,null,,null,,APOC Trust Fund,AETH0194818815
9950,AFRO,Eastern Africa,Ethiopia,17,ET,ETH,Benshangul-Gumuz,1944,Metekel,3169,Wombera,18703,Dura (Chendula),35.55065,10.33826,Village,1,null,null,null,2012,2011 - 2016,,null,Mapping,Clinical,Nodule palpation,null,null,50,12,0.24,null,,null,,APOC Trust Fund,AETH0194418703
9951,AFRO,Eastern Africa,Ethiopia,17,ET,ETH,Gambela,1946,Itang,3157,Itang,18720,EBAGO,34.3167,8.2,Village,1,null,null,null,null,Before 2001,,null,Mapping,Clinical,Nodule palpation,null,null,36,1,0.028,null,,null,,APOC Trust Fund,AETH0194618720
9952,AFRO,Eastern Africa,Ethiopia,17,ET,ETH,Oromiya,1948,W. Shewa,3190,Nono,18977,EBANI,37.3167,8.5667,Village,1,null,null,null,null,Before 2001,,null,Mapping,Clinical,Nodule palpation,null,null,40,4,0.1,null,,null,,APOC Trust Fund,AETH0194818977
9953,AFRO,Eastern Africa,Ethiopia,17,ET,ETH,Oromiya,1948,West Wellega,3194,HARU,18892,Ebi Wara Baro,35.76416,8.97166,Village,1,null,null,null,2011,2011 - 2016,,null,Mapping,Clinical,Nodule palpation,null,null,32,12,0.375,null,,null,,APOC Trust Fund,AETH0194818892
9954,AFRO,Eastern Africa,Ethiopia,17,ET,ETH,Oromiya,1948,West Wellega,3194,B/DIRMEJI,18771,Ebicha,35.62946,9.2898,Village,1,null,null,null,2011,2011 - 2016,,null,Mapping,Clinical,Nodule palpation,null,null,35,7,0.2,null,,null,,APOC Trust Fund,AETH0194818771
9955,AFRO,Eastern Africa,Ethiopia,17,ET,ETH,Oromiya,1948,S.W. Shewa,3181,WONCHI,19026,Echadibdibe,37.83463,8.53974,Village,1,null,null,null,2014,2011 - 2016,,null,Mapping,Parasitological,Parasitology (Skin biopsy),null,null,149,0,0,null,,null,,APOC Trust Fund,AETH0194819026
9956,AFRO,Eastern Africa,Ethiopia,17,ET,ETH,Benshangul-Gumuz,1944,Metekel,3169,Wombera,18703,Elgod,35.52254,10.50481,Village,1,null,null,null,2012,2011 - 2016,,null,Mapping,Clinical,Nodule palpation,null,null,40,17,0.425,null,,null,,APOC Trust Fund,AETH0194418703
9957,AFRO,Eastern Africa,Ethiopia,17,ET,ETH,Amhara,1943,E. Gojam,3142,D/Elias,18563,ELIYAS,37.435216,10.292164,Village,1,null,null,null,null,Before 2001,,null,Mapping,Clinical,Nodule palpation,null,null,30,2,0.067,null,,null,,APOC Trust Fund,AETH0194318563
9958,AFRO,Eastern Africa,Ethiopia,17,ET,ETH,Oromiya,1948,Illu Aba bora,3155,Bedele Rural,18781,ELKE KAKA,36.3333,8.4167,Village,1,null,null,null,null,Before 2001,,null,Mapping,Clinical,Nodule palpation,null,null,33,0,0,null,,null,,APOC Trust Fund,AETH0194818781
9959,AFRO,Eastern Africa,Ethiopia,17,ET,ETH,SNNP,1950,Gamo Gofa,3148,Arbaminch zuria,19128,Ello,37.43617,6.06349,Village,1,null,null,null,2014,2011 - 2016,,null,Mapping,Parasitological,Parasitology (Skin biopsy),null,null,134,0,0,null,,null,,APOC Trust Fund,AETH0195019128
9960,AFRO,Eastern Africa,Ethiopia,17,ET,ETH,Amhara,1943,N. Gonder,3171,Tsegede,18670,Ergoye,36.84325,13.30973,Village,1,null,null,null,2011,2011 - 2016,,null,Mapping,Clinical,Nodule palpation,null,null,41,13,0.317,null,,null,,APOC Trust Fund,AETH0194318670
9961,AFRO,Eastern Africa,Ethiopia,17,ET,ETH,Amhara,1943,N. Gonder,3171,Tsegede,18670,ERGOYE,36.842,13.30923,Village,1,null,null,null,2012,2011 - 2016,,null,Mapping,Parasitological,Parasitology (Skin biopsy),null,null,302,1,0.003,null,,null,,APOC Trust Fund,AETH0194318670
9962,AFRO,Eastern Africa,Ethiopia,17,ET,ETH,Amhara,1943,N. Gonder,3171,Tsegede,18670,ERGOYE,36.842,13.30923,Village,1,null,null,null,2012,2011 - 2016,,null,Mapping,Clinical,Nodule palpation,null,null,302,0,0,null,,null,,APOC Trust Fund,AETH0194318670
9963,AFRO,Eastern Africa,Ethiopia,17,ET,ETH,SNNP,1950,Kafa,3160,Decha,19167,ERMO,36.1833,7.1167,Village,1,null,null,null,null,Before 2001,,null,Mapping,Clinical,Nodule palpation,null,null,32,10,0.313,null,,null,,APOC Trust Fund,AETH0195019167
9964,AFRO,Eastern Africa,Ethiopia,17,ET,ETH,SNNP,1950,Gamo Gofa,3148,M/ABYA,19219,EZO/DORSE,37.672043,6.385258,Village,1,null,null,null,null,Before 2001,,null,Mapping,Clinical,Nodule palpation,null,null,31,0,0,null,,null,,APOC Trust Fund,AETH0195019219
9965,AFRO,Eastern Africa,Ethiopia,17,ET,ETH,Benshangul-Gumuz,1944,Asosa,3131,Sherkole,18702,Faguriyu,34.92628,10.76242,Village,1,null,null,null,2011,2011 - 2016,,null,Mapping,Clinical,Nodule palpation,null,null,32,1,0.031,null,,null,,APOC Trust Fund,AETH0194418702
9966,AFRO,Eastern Africa,Ethiopia,17,ET,ETH,SNNP,1950,Gamo Gofa,3148,KUCHA,19211,Fango,37.43745,6.43587,Village,1,null,null,null,2014,2011 - 2016,,null,Mapping,Parasitological,Parasitology (Skin biopsy),null,null,100,0,0,null,,null,,APOC Trust Fund,AETH0195019211
9967,AFRO,Eastern Africa,Ethiopia,17,ET,ETH,Benshangul-Gumuz,1944,Metekel,3169,Guba,18692,FANGUSO,35.1,11.2167,Village,1,null,null,null,null,Before 2001,,null,Mapping,Clinical,Nodule palpation,null,null,36,7,0.194,null,,null,,APOC Trust Fund,AETH0194418692
9968,AFRO,Eastern Africa,Ethiopia,17,ET,ETH,SNNP,1950,Bench Maji,3134,Menit Shasha,19229,FANIKA,35.506355,6.625054,Village,1,null,null,null,null,Before 2001,,null,Mapping,Clinical,Nodule palpation,null,null,31,7,0.226,null,,null,,APOC Trust Fund,AETH0195019229
9969,AFRO,Eastern Africa,Ethiopia,17,ET,ETH,SNNP,1950,Bench Maji,3134,North Bench,19236,FANIKA,35.4833,6.9333,Village,1,null,null,null,null,Before 2001,,null,Mapping,Clinical,Nodule palpation,null,null,30,16,0.533,null,,null,,APOC Trust Fund,AETH0195019236
9970,AFRO,Eastern Africa,Ethiopia,17,ET,ETH,Amhara,1943,Awi,3126,Jawi,18616,Fasil,36.60485,11.383933,Village,1,null,null,null,2012,2011 - 2016,,null,Mapping,Clinical,Nodule palpation,null,null,38,0,0,null,,null,,APOC Trust Fund,AETH0194318616
9971,AFRO,Eastern Africa,Ethiopia,17,ET,ETH,SNNP,1950,South Omo,3186,Hamer,19197,FEJEJ,36.420616,4.687276,Village,1,null,null,null,null,Before 2001,,null,Mapping,Clinical,Nodule palpation,null,null,30,0,0,null,,null,,APOC Trust Fund,AETH0195019197
9972,AFRO,Eastern Africa,Ethiopia,17,ET,ETH,Amhara,1943,N. Gonder,3171,Chilga,18562,FELFEL,36.947035,12.792166,Village,1,null,null,null,null,Before 2001,,null,Mapping,Clinical,Nodule palpation,null,null,34,3,0.088,null,,null,,APOC Trust Fund,AETH0194318562
9973,AFRO,Eastern Africa,Ethiopia,17,ET,ETH,Amhara,1943,S. Wello,3180,Delanta,18580,FEREKAKE,39.1833,11.5,Village,1,null,null,null,null,Before 2001,,null,Mapping,Clinical,Nodule palpation,null,null,40,0,0,null,,null,,APOC Trust Fund,AETH0194318580
9974,AFRO,Eastern Africa,Ethiopia,17,ET,ETH,Amhara,1943,Awi,3126,Guangua,18607,Fetan,36.43688,10.88289,Village,1,null,null,null,2014,2011 - 2016,,null,Mapping,Parasitological,Parasitology (Skin biopsy),null,null,280,0,0,null,,null,,APOC Trust Fund,AETH0194318607
9975,AFRO,Eastern Africa,Ethiopia,17,ET,ETH,Oromiya,1948,Jimma,3159,Kersa,18928,Finciso,36.98364,7.61106,Village,1,null,null,null,2011,2011 - 2016,,null,Mapping,Clinical,Nodule palpation,null,null,50,2,0.04,null,,null,,APOC Trust Fund,AETH0194818928
9976,AFRO,Eastern Africa,Ethiopia,17,ET,ETH,Amhara,1943,N. Gonder,3171,Alefa,18535,Finjit,36.60698,11.96703,Village,1,null,null,null,2011,2011 - 2016,,null,Mapping,Clinical,Nodule palpation,null,null,24,1,0.042,null,,null,,APOC Trust Fund,AETH0194318535
9977,AFRO,Eastern Africa,Ethiopia,17,ET,ETH,Benshangul-Gumuz,1944,Kamashi,3161,Yaso,18704,Fiti,36.04549,9.6939,Village,1,null,null,null,2012,2011 - 2016,,null,Mapping,Clinical,Nodule palpation,null,null,50,25,0.5,null,,null,,APOC Trust Fund,AETH0194418704
9978,AFRO,Eastern Africa,Ethiopia,17,ET,ETH,SNNP,1950,Gamo Gofa,3148,BONEKE,19135,Fudele,37.24742,5.88953,Village,1,null,null,null,2014,2011 - 2016,,null,Mapping,Parasitological,Parasitology (Skin biopsy),null,null,168,0,0,null,,null,,APOC Trust Fund,AETH0195019135
9979,AFRO,Eastern Africa,Ethiopia,17,ET,ETH,Oromiya,1948,Guji,3151,Liben,18945,FUNAN KAR,39.6833,5.5,Village,1,null,null,null,null,Before 2001,,null,Mapping,Clinical,Nodule palpation,null,null,40,0,0,null,,null,,APOC Trust Fund,AETH0194818945
9980,AFRO,Eastern Africa,Ethiopia,17,ET,ETH,Oromiya,1948,West Wellega,3194,B/DIRMEJI,18771,Gaba Daeno,35.63008,9.28979,Village,1,null,null,null,2011,2011 - 2016,,null,Mapping,Clinical,Nodule palpation,null,null,35,9,0.257,null,,null,,APOC Trust Fund,AETH0194818771
9981,AFRO,Eastern Africa,Ethiopia,17,ET,ETH,Oromiya,1948,West Wellega,3194,BEGHI,18774,Gaba Facasa,34.45998,9.44301,Village,1,null,null,null,2011,2011 - 2016,,null,Mapping,Clinical,Nodule palpation,null,null,33,8,0.242,null,,null,,APOC Trust Fund,AETH0194818774
9982,AFRO,Eastern Africa,Ethiopia,17,ET,ETH,Oromiya,1948,West Wellega,3194,M/SIBU,18949,Gaba Jimata,34.95523,9.86788,Village,1,null,null,null,2011,2011 - 2016,,null,Mapping,Clinical,Nodule palpation,null,null,35,14,0.4,null,,null,,APOC Trust Fund,AETH0194818949
9983,AFRO,Eastern Africa,Ethiopia,17,ET,ETH,Oromiya,1948,West Wellega,3194,NOLE K.,18973,Gabata,35.64054,8.74333,Village,1,null,null,null,2011,2011 - 2016,,null,Mapping,Clinical,Nodule palpation,null,null,32,2,0.063,null,,null,,APOC Trust Fund,AETH0194818973
9984,AFRO,Eastern Africa,Ethiopia,17,ET,ETH,Oromiya,1948,West Wellega,3194,M/SIBU,18949,Gabirel,35.13953,9.89698,Village,1,null,null,null,2011,2011 - 2016,,null,Mapping,Clinical,Nodule palpation,null,null,35,0,0,null,,null,,APOC Trust Fund,AETH0194818949
9985,AFRO,Eastern Africa,Ethiopia,17,ET,ETH,SNNP,1950,Bench Maji,3134,South Bench,19254,Gacheb,35.59464,7.01906,Village,1,null,null,null,null,,,null,Phase 1a Epidemiological evaluation,Parasitological,Parasitology (Skin biopsy),null,null,181,1,0.006,0,,null,APOC,APOC Trust Fund,AETH0195019254
9986,AFRO,Eastern Africa,Ethiopia,17,ET,ETH,SNNP,1950,Bench Maji,3134,North Bench,19236,GACHEB,35.590221,6.912168,Village,1,null,null,null,null,Before 2001,,null,Mapping,Clinical,Nodule palpation,null,null,37,12,0.324,null,,null,,APOC Trust Fund,AETH0195019236
9987,AFRO,Eastern Africa,Ethiopia,17,ET,ETH,SNNP,1950,Bench Maji,3134,South Bench,19254,GACHEB,35.594468,7.019122,Village,1,null,null,null,null,Before 2001,,null,Mapping,Clinical,Nodule palpation,null,null,14,3,0.214,null,,null,,APOC Trust Fund,AETH0195019254
9988,AFRO,Eastern Africa,Ethiopia,17,ET,ETH,SNNP,1950,Bench Maji,3134,Mizan,19233,GACHEBO,35.5667,7,Village,1,null,null,null,null,Before 2001,,null,Mapping,Clinical,Nodule palpation,null,null,36,20,0.556,null,,null,,APOC Trust Fund,AETH0195019233
9989,AFRO,Eastern Africa,Ethiopia,17,ET,ETH,Amhara,1943,West Gojam,3193,Womberma,18675,Galabed,37.00875,10.48335,Village,1,null,null,null,2014,2011 - 2016,,null,Mapping,Parasitological,Parasitology (Skin biopsy),null,null,203,0,0,null,,null,,APOC Trust Fund,AETH0194318675
9990,AFRO,Eastern Africa,Ethiopia,17,ET,ETH,Oromiya,1948,West Wellega,3194,L/ASSABI,18936,Galesa,35.5748,9.11668,Village,1,null,null,null,2011,2011 - 2016,,null,Mapping,Clinical,Nodule palpation,null,null,32,1,0.031,null,,null,,APOC Trust Fund,AETH0194818936
